$GPGGA,173122.000,3827.5419,N,12241.0054,W,1,07,1.6,52.0,M,-24.5,M,,0000*51

@,!,50,&,100000
$GPGGA,173123.000,3827.5419,N,12241.0055,W,1,07,1.6,51.7,M,-24.5,M,,0000*55
@,!,50,&,100000

$GPGGA,173124.000,3827.5419,N,12241.0055,W,1,07,1.6,51.4,M,-24.5,M,,0000*51

@,!,50,&,100000
$GPGGA,173125.000,3827.5418,N,12241.0055,W,1,07,1.6,51.2,M,-24.5,M,,0000*57
@,!,50,&,100000
$GPGGA,173126.000,3827.5418,N,12241.0055,W,1,07,1.6,51.0,M,-24.5,M,,0000*56
@,!,50,&,100000
$GPGGA,173127.000,3827.5418,N,12241.0055,W,1,07,1.6,50.8,M,-24.5,M,,0000*5E
@,!,50,&,100000
$GPGGA,173128.000,3827.5419,N,12241.0055,W,1,08,1.1,50.9,M,-24.5,M,,0000*59
@,!,50,&,100000
$GPGGA,173129.000,3827.5420,N,12241.0055,W,1,08,1.1,51.0,M,-24.5,M,,0000*5A
@,!,50,&,100000
$GPGGA,173130.000,3827.5421,N,12241.0055,W,1,08,1.1,51.2,M,-24.5,M,,0000*51
@,!,50,&,100000

$GPGGA,173131.000,3827.5420,N,12241.0055,W,1,07,1.6,50.9,M,-24.5,M,,0000*53

@,!,50,&,100000

$GPGGA,173132.000,3827.5421,N,12241.0055,W,1,07,1.6,51.0,M,-24.5,M,,0000*59

@,!,50,&,100000

$GPGGA,173133.000,3827.5422,N,12241.0055,W,1,07,1.6,51.4,M,-24.5,M,,0000*5F

@,!,50,&,100000

$GPGGA,173134.000,3827.5424,N,12241.0055,W,1,07,1.6,51.9,M,-24.5,M,,0000*53

@,!,50,&,100000

$GPGGA,173135.000,3827.5425,N,12241.0055,W,1,07,1.6,52.3,M,-24.5,M,,0000*5A

@,!,50,&,100000

$GPGGA,173136.000,3827.5427,N,12241.0054,W,1,07,1.6,52.7,M,-24.5,M,,0000*5E

@,!,50,&,100000
$GPGGA,173137.000,3827.5428,N,12241.0054,W,1,07,1.6,53.0,M,-24.5,M,,0000*56
@,!,50,&,100000

$GPGGA,173446.000,3827.5438,N,12241.0055,W,1,07,1.5,59.3,M,-24.5,M,,0000*5F

@,!,50,&,100000
$GPGGA,173447.000,3827.5440,N,12241.
$GPGGA,173532.000,3827.5415,N,12241.0067,W,1,07,1.6,50.0,M,-24.5,M,,0000*5A

@,!,50,&,100000
$GPGGA,173533.000,3827.5416,N,12241.0069,W,1,07,1.6,49.7,M,-24.5,M,,0000*59
@,!,50,&,100000
$GPGGA,173534.000,3827.5416,N,12241.0070,W,1,07,1.6,49.7,M,-24.5,M,,0000*56
@,!,50,&,100000
$GPGGA,173535.000,3827.5416,N,12241.0069,W,1,07,1.6,49.9,M,-24.5,M,,0000*51
@,!,50,&,100000

$GPGGA,173536.000,3827.5417,N,12241.0069,W,1,07,1.6,50.1,M,-24.5,M,,0000*53

@,!,50,&,100000
$GPGGA,173537.000,3827.5415,N,12241.0069,W,1,07,1.6,49.6,M,-24.5,M,,0000*5F
@,!,50,&,100000

$GPGGA,173538.000,3827.5414,N,12241.0069,W,1,07,1.6,49.4,M,-24.5,M,,0000*53

@,!,50,&,100000
$GPGGA,173539.000,3827.5417,N,12241.0067,W,1,07,1.6,50.5,M,-24.5,M,,0000*56
@,!,50,&,100000

$GPGGA,173540.000,3827.5422,N,12241.0069,W,1,07,1.6,51.2,M,-24.5,M,,0000*56

@,!,50,&,100000
$GPGGA,173541.000,3827.5425,N,12241.0069,W,1,07,1.6,52.0,M,-24.5,M,,0000*51
@,!,50,&,100000

$GPGGA,173542.000,3827.5427,N,12241.0067,W,1,07,1.6,53.0,M,-24.5,M,,0000*5F

@,!,50,&,100000
$GPGGA,173543.000,3827.5430,N,12241.0067,W,1,07,1.6,53.7,M,-24.5,M,,0000*5F
@,!,50,&,100000
$GPGGA,173544.000,3827.5433,N,12241.0067,W,1,07,1.6,54.5,M,-24.5,M,,0000*5E
@,!,50,&,100000
$GPGGA,173545.000,3827.5434,N,12241.0069,W,1,07,1.6,54.3,M,-24.5,M,,0000*50
@,!,50,&,100000
$GPGGA,173546.000,3827.5434,N,12241.0068,W,1,07,1.6,54.6,M,-24.5,M,,0000*57
@,!,50,&,100000
$GPGGA,173547.000,3827.5435,N,12241.0066,W,1,07,1.6,55.1,M,-24.5
$GPGGA,173550.000,3827.5439,N,12241.0069,W,1,07,1.6,55.4,M,-24.5,M,,0000*5F

@,!,50,&,100000

$GPGGA,173551.000,3827.5441,N,12241.0071,W,1,07,1.6,55.3,M,-24.5,M,,0000*5F

@,!,50,&,100000

$GPGGA,173552.000,3827.5442,N,12241.0073,W,1,07,1.6,55.3,M,-24.5,M,,0000*5D

@,!,50,&,100000

$GPGGA,173553.000,3827.5442,N,12241.0072,W,1,07,1.6,55.6,M,-24.5,M,,0000*58

@,!,50,&,100000

$GPGGA,173554.000,3827.5444,N,12241.0074,W,1,07,1.6,55.3,M,-24.5,M,,0000*5A

@,!,50,&,100000

$GPGGA,173555.000,3827.5444,N,12241.0075,W,1,07,1.6,55.3,M,-24.5,M,,0000*5A

@,!,50,&,100000

$GPGGA,173556.000,3827.5443,N,12241.0074,W,1,07,1.6,55.4,M,-24.5,M,,0000*58

@,!,50,&,100000

$GPGGA,173557.000,3827.5442,N,12241.0072,W,1,07,1.6,55.6,M,-24.5,M,,0000*5C

@,!,50,&,100000
$GPGGA,173558.000,3827.5442,N,12241.0073,W,1,07,1.6,55.5,M,-24.5,M,,0000*51
@,!,50,&,100000
$GPGGA,173559.000,3827.5442,N,12241.0073,W,1,07,1.6,55.7,M,-24.5,M,,0000*52
@,!,50,&,100000
$GPGGA,173600.000,3827.5445,N,12241.0072,W,1,07,1.6,56.3,M,-24.5,M,,0000*5C
@,!,50,&,100000
$GPGGA,173601.000,3827.5448,N,12241.0072,W,1,07,1.6,57.1,M,-24.5,M,,0000*53
@,!,50,&,100000

$GPGGA,173643.000,3827.5439,N,12241.0058,W,1,07,1.6,59.1,M,-24.5,M,,0000*55

@,!,50,&,100000
$GPGGA,173644.000,3827.5436,N,12241.0057,W,1,07,1.6,58.8,M,-24.5,M,,0000*5A
@,!,50,&,100000

