$GPGGA,180132.000,3827.5452,N,12241.0068,W,1,08,1.1,64.7,M,-24.5,M,,0000*56

@,!,50,&,100000
$GPGGA,180133.000,3827.5452,N,12241.0065,W,1,08,1.1,65.4,M,-24.5,M,,0000*58

@,!,50,&,100000
$GPGGA,180134.000,3827.5454,N,12241.0065,W,1,08,1.1,66.9,M,-24.5,M,,0000*57

@,!,50,&,100000
$GPGGA,180135.000,3827.5453,N,12241.0065,W,1,08,1.1,67.5,M,-24.5,M,,0000*5C

@,!,50,&,100000
$GPGGA,180136.000,3827.5446,N,12241.0064,W,1,08,1.1,66.8,M,-24.5,M,,0000*56

@,!,50,&,100000
$GPGGA,180137.000,3827.5444,N,12241.0067,W,1,08,1.1,66.3,M,-24.5,M,,0000*5D

@,!,50,&,100000
$GPGGA,180138.000,3827.5442,N,12241.0067,W,1,08,1.1,66.0,M,-24.5,M,,0000*57

@,!,50,&,100000
$GPGGA,180139.000,3827.5439,N,12241.0068,W,1,08,1.1,65.1,M,-24.5,M,,0000*57

@,!,50,&,100000
$GPGGA,180140.000,3827.5436,N,12241.0068,W,1,08,1.1,64.3,M,-24.5,M,,0000*55

@,!,50,&,100000
$GPGGA,180141.000,3827.5433,N,12241.0066,W,1,08,1.1,63.2,M,-24.5,M,,0000*59

@,!,50,&,100000
$GPGGA,180142.000,3827.5430,N,12241.0068,W,1,08,1.1,62.1,M,-24.5,M,,0000*55

@,!,50,&,100000
$GPGGA,180143.000,3827.5428,N,12241.0069,W,1,08,1.1,61.1,M,-24.5,M,,0000*5F

@,!,50,&,100000
$GPGGA,180144.000,3827.5428,N,12241.0068,W,1,08,1.1,60.9,M,-24.5,M,,0000*50

@,!,50,&,100000
$GPGGA,180145.000,3827.5427,N,12241.0068,W,1,06,1.2,60.6,M,-24.5,M,,0000*5C

@,!,50,&,100000
$GPGGA,180146.000,3827.5432,N,12241.0068,W,1,07,1.2,60.7,M,-24.5,M,,0000*5B

@,!,50,&,100000
$GPGGA,180147.000,3827.5435,N,12241.0067,W,1,07,1.2,61.6,M,-24.5,M,,0000*52

@,!,50,&,100000
$GPGGA,180148.000,3827.5435,N,12241.0065,W,1,06,1.2,62.1,M,-24.5,M,,0000*5A

@,!,50,&,100000
$GPGGA,180149.000,3827.5436,N,12241.0063,W,1,05,1.8,63.6,M,-24.5,M,,0000*51

@,!,50,&,100000
$GPGGA,180150.000,3827.5439,N,12241.0061,W,1,06,1.2,64.9,M,-24.5,M,,0000*55

@,!,50,&,100000
$GPGGA,180151.000,3827.5441,N,12241.0060,W,1,06,1.2,66.0,M,-24.5,M,,0000*51

@,!,50,&,100000
$GPGGA,180152.000,3827.5443,N,12241.0060,W,1,06,1.2,66.3,M,-24.5,M,,0000*53

@,!,50,&,100000
$GPGGA,180153.000,3827.5444,N,12241.0060,W,1,05,1.8,66.5,M,-24.5,M,,0000*5A

@,!,50,&,100000
$GPGGA,180154.000,3827.5445,N,12241.0059,W,1,05,1.8,66.7,M,-24.5,M,,0000*54

@,!,50,&,100000
$GPGGA,180155.000,3827.5445,N,12241.0058,W,1,06,1.2,66.7,M,-24.5,M,,0000*5D

@,!,50,&,100000
$GPGGA,180156.000,3827.5448,N,12241.0058,W,1,06,1.2,66.7,M,-24.5,M,,0000*53

@,!,50,&,100000
$GPGGA,180157.000,3827.5449,N,12241.0058,W,1,06,1.2,66.2,M,-24.5,M,,0000*56

@,!,50,&,100000
$GPGGA,180158.000,3827.5451,N,12241.0057,W,1,05,1.8,66.4,M,-24.5,M,,0000*50

@,!,50,&,100000
$GPGGA,180159.000,3827.5450,N,12241.0058,W,1,05,1.8,65.9,M,-24.5,M,,0000*51

@,!,50,&,100000
$GPGGA,180200.000,3827.5451,N,12241.0057,W,1,05,1.8,66.0,M,-24.5,M,,0000*5A

@,!,50,&,100000
$GPGGA,180201.000,3827.5454,N,12241.0055,W,1,05,1.8,66.9,M,-24.5,M,,0000*55

@,!,50,&,100000
$GPGGA,180202.000,3827.5454,N,12241.0052,W,1,06,1.2,67.2,M,-24.5,M,,0000*52

@,!,50,&,100000
$GPGGA,180203.000,3827.5452,N,12241.0050,W,1,06,1.2,67.3,M,-24.5,M,,0000*56

@,!,50,&,100000
$GPGGA,180204.000,3827.5451,N,12241.0049,W,1,04,6.7,67.7,M,-24.5,M,,0000*5E

@,!,50,&,100000
$GPGGA,180205.000,3827.5452,N,12241.0050,W,1,06,1.2,67.5,M,-24.5,M,,0000*56

@,!,50,&,100000
$GPGGA,180206.000,3827.5451,N,12241.0055,W,1,06,1.2,66.5,M,-24.5,M,,0000*52

@,!,50,&,100000
$GPGGA,180207.000,3827.5449,N,12241.0052,W,1,06,1.2,66.8,M,-24.5,M,,0000*50

@,!,50,&,100000
$GPGGA,180208.000,3827.5450,N,12241.0048,W,1,06,1.2,67.4,M,-24.5,M,,0000*51

@,!,50,&,100000
$GPGGA,180209.000,3827.5449,N,12241.0041,W,1,06,1.2,68.2,M,-24.5,M,,0000*58

@,!,50,&,100000
$GPGGA,180210.000,3827.5447,N,12241.0037,W,1,06,1.2,68.7,M,-24.5,M,,0000*5A

@,!,50,&,100000
$GPGGA,180211.000,3827.5445,N,12241.0033,W,1,06,1.2,68.8,M,-24.5,M,,0000*52

@,!,50,&,100000
$GPGGA,180212.000,3827.5442,N,12241.0034,W,1,05,1.8,68.5,M,-24.5,M,,0000*55

@,!,50,&,100000
$GPGGA,180213.000,3827.5442,N,12241.0033,W,1,05,1.8,68.5,M,-24.5,M,,0000*53

@,!,50,&,100000
$GPGGA,180214.000,3827.5442,N,12241.0033,W,1,05,1.8,68.5,M,-24.5,M,,0000*54

@,!,50,&,100000
$GPGGA,180215.000,3827.5441,N,12241.0035,W,1,05,1.8,68.3,M,-24.5,M,,0000*56

@,!,50,&,100000
$GPGGA,180216.000,3827.5442,N,12241.0034,W,1,05,1.8,68.4,M,-24.5,M,,0000*50

@,!,50,&,100000
$GPGGA,180217.000,3827.5442,N,12241.0036,W,1,05,1.8,68.2,M,-24.5,M,,0000*55

@,!,50,&,100000
$GPGGA,180218.000,3827.5442,N,12241.0038,W,1,05,1.8,68.2,M,-24.5,M,,0000*54

@,!,50,&,100000
$GPGGA,180219.000,3827.5442,N,12241.0040,W,1,05,1.8,67.9,M,-24.5,M,,0000*5E

@,!,50,&,100000
$GPGGA,180220.000,3827.5442,N,12241.0045,W,1,05,1.8,67.3,M,-24.5,M,,0000*5B

@,!,50,&,100000
$GPGGA,180221.000,3827.5443,N,12241.0048,W,1,05,1.8,66.6,M,-24.5,M,,0000*52

@,!,50,&,100000
$GPGGA,180222.000,3827.5443,N,12241.0050,W,1,05,1.8,66.2,M,-24.5,M,,0000*5C

@,!,50,&,100000
$GPGGA,180223.000,3827.5444,N,12241.0047,W,1,05,1.8,66.7,M,-24.5,M,,0000*59

@,!,50,&,100000
$GPGGA,180224.000,3827.5446,N,12241.0040,W,1,05,1.8,67.4,M,-24.5,M,,0000*59

@,!,50,&,100000
$GPGGA,180225.000,3827.5449,N,12241.0040,W,1,06,1.2,67.0,M,-24.5,M,,0000*5A

@,!,50,&,100000
$GPGGA,180226.000,3827.5452,N,12241.0039,W,1,06,1.2,66.6,M,-24.5,M,,0000*5A

@,!,50,&,100000
$GPGGA,180227.000,3827.5453,N,12241.0039,W,1,05,1.8,66.4,M,-24.5,M,,0000*51

@,!,50,&,100000
$GPGGA,180228.000,3827.5454,N,12241.0040,W,1,04,6.7,66.1,M,-24.5,M,,0000*5B

@,!,50,&,100000
$GPGGA,180229.000,3827.5454,N,12241.0041,W,1,04,6.7,65.7,M,-24.5,M,,0000*5E

@,!,50,&,100000
$GPGGA,180230.000,3827.5456,N,12241.0045,W,1,05,1.7,64.9,M,-24.5,M,,0000*59

@,!,50,&,100000
$GPGGA,180231.000,3827.5457,N,12241.0047,W,1,05,1.7,64.2,M,-24.5,M,,0000*50

@,!,50,&,100000
$GPGGA,180232.000,3827.5458,N,12241.0044,W,1,06,1.2,64.3,M,-24.5,M,,0000*58

@,!,50,&,100000
