$GPGGA,191604.955,,,,,0,00,,,M,0.0,M,,0000*54

@,!,286,&,100833
$GPGGA,191605.955,,,,,0,00,,,M,0.0,M,,0000*55

@,!,286,&,100843
$GPGGA,191606.955,,,,,0,00,,,M,0.0,M,,0000*56

@,!,286,&,100828
$GPGGA,191607.955,,,,,0,00,,,M,0.0,M,,0000*57

@,!,286,&,100834
$GPGGA,191608.955,,,,,0,00,,,M,0.0,M,,0000*58

@,!,287,&,100831
$GPGGA,191609.948,,,,,0,00,,,M,0.0,M,,0000*55

@,!,287,&,100828
$GPGGA,191610.948,,,,,0,00,,,M,0.0,M,,0000*5D

@,!,287,&,100828
$GPGGA,191611.948,,,,,0,00,,,M,0.0,M,,0000*5C

@,!,287,&,100825
$GPGGA,191612.948,,,,,0,00,,,M,0.0,M,,0000*5F

@,!,287,&,100831
$GPGGA,191613.948,,,,,0,00,,,M,0.0,M,,0000*5E

@,!,288,&,100831
$GPGGA,191614.948,,,,,0,00,,,M,0.0,M,,0000*59

@,!,287,&,100825
$GPGGA,191615.948,,,,,0,00,,,M,0.0,M,,0000*58

@,!,288,&,100810
$GPGGA,191616.948,3827.5643,N,12241.0087,W,0,03,,61.9,M,-24.5,M,,0000*7E

@,!,290,&,100807
$GPGGA,191617.948,3827.5612,N,12241.0077,W,0,03,,61.9,M,-24.5,M,,0000*74

@,!,292,&,100811
$GPGGA,191618.948,3827.5503,N,12241.0054,W,0,03,,61.9,M,-24.5,M,,0000*79

@,!,294,&,100823
$GPGGA,191619.948,3827.5336,N,12241.0093,W,0,03,,61.9,M,-24.5,M,,0000*73

@,!,295,&,100808
$GPGGA,191620.948,3827.5435,N,12241.0059,W,0,03,,61.9,M,-24.5,M,,0000*7B

@,!,297,&,100803
$GPGGA,191621.948,3827.5412,N,12241.0045,W,0,03,,61.9,M,-24.5,M,,0000*72

@,!,298,&,100818
$GPGGA,191622.948,3827.5467,N,12241.0074,W,0,03,,61.9,M,-24.5,M,,0000*71

@,!,300,&,100812
$GPGGA,191623.948,3827.5617,N,12241.0055,W,0,03,,61.9,M,-24.5,M,,0000*76

@,!,301,&,100797
$GPGGA,191624.948,3827.5507,N,12241.0068,W,0,03,,61.9,M,-24.5,M,,0000*7D

@,!,303,&,100816
$GPGGA,191625.948,3827.5348,N,12241.0085,W,0,03,,61.9,M,-24.5,M,,0000*72

@,!,304,&,100813
$GPGGA,191626.948,3827.5476,N,12241.0032,W,1,04,5.4,83.6,M,-24.5,M,,0000*5D

@,!,305,&,100810
$GPGGA,191627.955,3827.5506,N,12241.0020,W,1,04,5.4,76.6,M,-24.5,M,,0000*5F

@,!,307,&,100810
$GPGGA,191628.955,3827.5513,N,12241.0019,W,1,04,5.4,75.9,M,-24.5,M,,0000*52

@,!,308,&,100808
$GPGGA,191629.955,3827.5484,N,12241.0033,W,1,04,5.4,77.7,M,-24.5,M,,0000*58

@,!,309,&,100823
$GPGGA,191630.955,3827.5486,N,12241.0022,W,1,04,5.4,78.7,M,-24.5,M,,0000*5D

@,!,310,&,100820
$GPGGA,191631.955,3827.5448,N,12241.0030,W,1,05,3.6,72.6,M,-24.5,M,,0000*53

@,!,311,&,100811
$GPGGA,191632.955,3827.5425,N,12241.0038,W,1,05,3.6,68.8,M,-24.5,M,,0000*56

@,!,312,&,100811
$GPGGA,191633.955,3827.5424,N,12241.0038,W,1,05,3.6,68.8,M,-24.5,M,,0000*56

@,!,314,&,100821
$GPGGA,191634.955,3827.5433,N,12241.0036,W,1,05,3.6,67.9,M,-24.5,M,,0000*57

@,!,315,&,100803
$GPGGA,191635.955,3827.5416,N,12241.0034,W,1,05,3.6,70.9,M,-24.5,M,,0000*55

@,!,316,&,100815
$GPGGA,191636.955,3827.5412,N,12241.0033,W,1,05,3.6,73.1,M,-24.5,M,,0000*5E

@,!,316,&,100809
$GPGGA,191637.955,3827.5416,N,12241.0032,W,1,05,3.6,73.7,M,-24.5,M,,0000*5C

@,!,317,&,100812
$GPGGA,191638.955,3827.5419,N,12241.0029,W,1,05,3.6,76.0,M,-24.5,M,,0000*54

@,!,318,&,100809
$GPGGA,191639.955,3827.5420,N,12241.0026,W,1,05,3.6,78.0,M,-24.5,M,,0000*5E

@,!,319,&,100812
$GPGGA,191640.955,3827.5420,N,12241.0024,W,1,05,3.6,79.9,M,-24.5,M,,0000*5A

@,!,320,&,100807
$GPGGA,191641.955,3827.5417,N,12241.0022,W,1,05,3.6,81.4,M,-24.5,M,,0000*53

@,!,319,&,100810
$GPGGA,191642.955,3827.5416,N,12241.0021,W,1,05,3.6,82.6,M,-24.5,M,,0000*53

@,!,320,&,100813
$GPGGA,191643.955,3827.5416,N,12241.0020,W,1,05,3.6,83.2,M,-24.5,M,,0000*56

@,!,320,&,100804
$GPGGA,191645.000,3827.5420,N,12241.0019,W,1,05,3.6,83.6,M,-24.5,M,,0000*52

@,!,320,&,100816
$GPGGA,191646.000,3827.5425,N,12241.0017,W,1,06,2.9,83.8,M,-24.5,M,,0000*59

@,!,320,&,100804
$GPGGA,191647.000,3827.5427,N,12241.0017,W,1,06,2.9,83.6,M,-24.5,M,,0000*54

@,!,321,&,100807
$GPGGA,191648.000,3827.5426,N,12241.0017,W,1,06,2.9,83.3,M,-24.5,M,,0000*5F

@,!,321,&,100807
$GPGGA,191649.000,3827.5429,N,12241.0017,W,1,06,2.9,82.8,M,-24.5,M,,0000*5B

@,!,321,&,100813
$GPGGA,191650.000,3827.5430,N,12241.0018,W,1,06,2.9,81.9,M,-24.5,M,,0000*56

@,!,322,&,100807
$GPGGA,191651.000,3827.5431,N,12241.0019,W,1,06,2.9,81.2,M,-24.5,M,,0000*5C

@,!,322,&,100807
$GPGGA,191652.000,3827.5431,N,12241.0020,W,1,06,2.9,80.4,M,-24.5,M,,0000*52

@,!,323,&,100810
$GPGGA,191653.000,3827.5434,N,12241.0020,W,1,06,2.9,79.7,M,-24.5,M,,0000*53

@,!,323,&,100813
$GPGGA,191654.000,3827.5435,N,12241.0020,W,1,06,2.9,79.0,M,-24.5,M,,0000*52

@,!,323,&,100807
$GPGGA,191655.000,3827.5434,N,12241.0020,W,1,06,2.9,78.9,M,-24.5,M,,0000*5A

@,!,324,&,100816
$GPGGA,191656.000,3827.5432,N,12241.0019,W,1,06,2.9,78.9,M,-24.5,M,,0000*55

@,!,324,&,100804
$GPGGA,191657.000,3827.5432,N,12241.0019,W,1,06,2.9,78.9,M,-24.5,M,,0000*54

@,!,325,&,100811
$GPGGA,191658.000,3827.5432,N,12241.0018,W,1,06,2.9,79.2,M,-24.5,M,,0000*50

@,!,325,&,100805
$GPGGA,191659.000,3827.5435,N,12241.0018,W,1,05,3.8,79.0,M,-24.5,M,,0000*57

@,!,326,&,100817
$GPGGA,191700.000,3827.5436,N,12241.0017,W,1,05,3.8,79.4,M,-24.5,M,,0000*52

@,!,326,&,100817
$GPGGA,191701.000,3827.5442,N,12241.0016,W,1,05,3.8,79.4,M,-24.5,M,,0000*51

@,!,326,&,100808
$GPGGA,191702.000,3827.5448,N,12241.0015,W,1,07,1.5,79.9,M,-24.5,M,,0000*5B

@,!,326,&,100808
$GPGGA,191703.000,3827.5450,N,12241.0013,W,1,06,1.6,80.3,M,-24.5,M,,0000*5B

@,!,327,&,100802
$GPGGA,191704.000,3827.5451,N,12241.0013,W,1,06,1.6,80.2,M,-24.5,M,,0000*5C

@,!,327,&,100805
$GPGGA,191705.000,3827.5452,N,12241.0013,W,1,06,1.6,80.2,M,-24.5,M,,0000*5E

@,!,328,&,100820
$GPGGA,191706.000,3827.5452,N,12241.0012,W,1,06,1.6,80.6,M,-24.5,M,,0000*58

@,!,328,&,100808
$GPGGA,191707.000,3827.5453,N,12241.0012,W,1,06,1.6,80.4,M,-24.5,M,,0000*5A

@,!,329,&,100808
$GPGGA,191708.000,3827.5454,N,12241.0012,W,1,06,1.6,79.9,M,-24.5,M,,0000*59

@,!,329,&,100802
$GPGGA,191709.000,3827.5455,N,12241.0011,W,1,06,1.6,79.7,M,-24.5,M,,0000*54

@,!,330,&,100811
$GPGGA,191710.000,3827.5455,N,12241.0011,W,1,06,1.6,79.4,M,-24.5,M,,0000*5F

@,!,330,&,100808
$GPGGA,191711.000,3827.5456,N,12241.0011,W,1,06,1.6,79.2,M,-24.5,M,,0000*5B

@,!,331,&,100815
$GPGGA,191712.000,3827.5455,N,12241.0010,W,1,07,1.5,79.4,M,-24.5,M,,0000*5E

@,!,331,&,100815$GPGGA,191713.000,3827.5454,N,12241.0010,W,1,06,1.5,79.6,M,-24.5,M,,0000*5D
@,!,332,&,100815$GPGGA,191714.000,3827.5454,N,12241.0011,W,1,05,1.6,79.3,M,-24.5,M,,0000*5E
@,!,333,&,100815$GPGGA,191715.000,3827.5454,N,12241.0012,W,1,05,1.6,79.3,M,-24.5,M,,0000*5C
@,!,333,&,100809
$GPGGA,191716.000,3827.5453,N,12241.0014,W,1,05,1.6,78.6,M,-24.5,M,,0000*5A

@,!,334,&,100821
$GPGGA,191717.000,3827.5453,N,12241.0017,W,1,05,1.6,77.9,M,-24.5,M,,0000*58

@,!,334,&,100806
$GPGGA,191718.000,3827.5453,N,12241.0019,W,1,05,1.6,77.3,M,-24.5,M,,0000*53

@,!,335,&,100815
$GPGGA,191719.000,3827.5453,N,12241.0020,W,1,06,1.5,76.8,M,-24.5,M,,0000*52

@,!,336,&,100812
$GPGGA,191720.000,3827.5453,N,12241.0022,W,1,06,1.5,75.9,M,-24.5,M,,0000*58

@,!,336,&,100797
$GPGGA,191721.000,3827.5452,N,12241.0023,W,1,06,1.5,75.2,M,-24.5,M,,0000*52

@,!,337,&,100816
$GPGGA,191722.000,3827.5452,N,12241.0026,W,1,06,1.5,74.0,M,-24.5,M,,0000*57

@,!,338,&,100816
$GPGGA,191723.000,3827.5452,N,12241.0028,W,1,06,1.5,73.1,M,-24.5,M,,0000*5E

@,!,338,&,100810
$GPGGA,191724.000,3827.5451,N,12241.0031,W,1,06,1.5,72.1,M,-24.5,M,,0000*53

@,!,339,&,100819
$GPGGA,191725.000,3827.5450,N,12241.0032,W,1,06,1.5,71.6,M,-24.5,M,,0000*54

@,!,339,&,100816
$GPGGA,191726.000,3827.5450,N,12241.0034,W,1,06,1.5,70.7,M,-24.5,M,,0000*51

@,!,340,&,100813
$GPGGA,191727.000,3827.5449,N,12241.0035,W,1,06,1.5,70.3,M,-24.5,M,,0000*5D

@,!,340,&,100807
$GPGGA,191728.000,3827.5448,N,12241.0035,W,1,06,1.5,70.0,M,-24.5,M,,0000*50

@,!,340,&,100807
$GPGGA,191729.000,3827.5448,N,12241.0035,W,1,06,1.5,69.8,M,-24.5,M,,0000*51

@,!,340,&,100804
$GPGGA,191730.000,3827.5449,N,12241.0034,W,1,06,1.5,70.4,M,-24.5,M,,0000*5D

@,!,341,&,100807
$GPGGA,191731.000,3827.5450,N,12241.0033,W,1,06,1.5,71.0,M,-24.5,M,,0000*56

@,!,341,&,100810
$GPGGA,191732.000,3827.5451,N,12241.0031,W,1,06,1.5,71.8,M,-24.5,M,,0000*5E

@,!,342,&,100807
$GPGGA,191733.000,3827.5452,N,12241.0029,W,1,06,1.5,72.6,M,-24.5,M,,0000*58

@,!,342,&,100817
$GPGGA,191734.000,3827.5453,N,12241.0028,W,1,06,1.5,72.9,M,-24.5,M,,0000*50

@,!,343,&,100805
$GPGGA,191735.000,3827.5454,N,12241.0027,W,1,06,1.5,73.3,M,-24.5,M,,0000*52

@,!,343,&,100820
$GPGGA,191736.000,3827.5454,N,12241.0027,W,1,06,1.5,73.4,M,-24.5,M,,0000*56

@,!,344,&,100820
$GPGGA,191737.000,3827.5454,N,12241.0028,W,1,06,1.5,73.2,M,-24.5,M,,0000*5E

@,!,345,&,100820
$GPGGA,191738.000,3827.5455,N,12241.0027,W,1,05,1.9,73.7,M,-24.5,M,,0000*55

@,!,345,&,100811
$GPGGA,191739.000,3827.5457,N,12241.0025,W,1,05,1.9,74.5,M,-24.5,M,,0000*51

@,!,346,&,100808
$GPGGA,191740.000,3827.5459,N,12241.0024,W,1,05,1.9,74.9,M,-24.5,M,,0000*5C

@,!,346,&,100811
$GPGGA,191741.000,3827.5460,N,12241.0023,W,1,05,1.9,75.7,M,-24.5,M,,0000*5F

@,!,347,&,100811
$GPGGA,191742.000,3827.5461,N,12241.0022,W,1,05,1.9,76.0,M,-24.5,M,,0000*58

@,!,348,&,100818
$GPGGA,191743.000,3827.5464,N,12241.0019,W,1,05,1.9,77.7,M,-24.5,M,,0000*52

@,!,348,&,100803
$GPGGA,191744.000,3827.5464,N,12241.0018,W,1,05,1.9,78.1,M,-24.5,M,,0000*5D

@,!,349,&,100812
$GPGGA,191745.000,3827.5465,N,12241.0017,W,1,05,1.9,78.7,M,-24.5,M,,0000*54

@,!,350,&,100812
$GPGGA,191746.000,3827.5467,N,12241.0014,W,1,05,1.9,80.4,M,-24.5,M,,0000*52

@,!,350,&,100812
$GPGGA,191747.000,3827.5467,N,12241.0014,W,1,05,1.9,80.4,M,-24.5,M,,0000*53

@,!,351,&,100812
$GPGGA,191748.000,3827.5465,N,12241.0017,W,1,05,1.9,79.1,M,-24.5,M,,0000*5E

@,!,351,&,100815
$GPGGA,191749.000,3827.5465,N,12241.0016,W,1,05,1.9,79.9,M,-24.5,M,,0000*56

@,!,352,&,100806
$GPGGA,191750.000,3827.5467,N,12241.0014,W,1,05,1.9,81.1,M,-24.5,M,,0000*51

@,!,353,&,100812
$GPGGA,191751.000,3827.5467,N,12241.0012,W,1,05,1.9,82.1,M,-24.5,M,,0000*55

@,!,353,&,100812
$GPGGA,191752.000,3827.5466,N,12241.0012,W,1,05,1.9,82.2,M,-24.5,M,,0000*54

@,!,354,&,100816
$GPGGA,191753.000,3827.5465,N,12241.0015,W,1,05,1.9,81.1,M,-24.5,M,,0000*51

@,!,354,&,100816
$GPGGA,191754.000,3827.5464,N,12241.0015,W,1,05,1.9,81.2,M,-24.5,M,,0000*54

@,!,355,&,100807
$GPGGA,191755.000,3827.5465,N,12241.0013,W,1,05,1.9,82.0,M,-24.5,M,,0000*53

@,!,355,&,100816
$GPGGA,191756.000,3827.5466,N,12241.0013,W,1,05,1.9,82.2,M,-24.5,M,,0000*51

@,!,356,&,100816
$GPGGA,191757.000,3827.5466,N,12241.0013,W,1,05,1.9,82.3,M,-24.5,M,,0000*51

@,!,357,&,100816
$GPGGA,191758.000,3827.5466,N,12241.0013,W,1,05,1.9,82.2,M,-24.5,M,,0000*5F

@,!,357,&,100822
$GPGGA,191759.000,3827.5465,N,12241.0014,W,1,05,1.9,81.6,M,-24.5,M,,0000*5D

@,!,358,&,100807
$GPGGA,191800.000,3827.5464,N,12241.0015,W,1,05,1.9,81.1,M,-24.5,M,,0000*59

@,!,358,&,100816
$GPGGA,191801.000,3827.5462,N,12241.0018,W,1,05,1.9,80.0,M,-24.5,M,,0000*53

@,!,359,&,100813
$GPGGA,191802.000,3827.5462,N,12241.0018,W,1,05,1.9,80.1,M,-24.5,M,,0000*51

@,!,359,&,100811
$GPGGA,191803.000,3827.5463,N,12241.0016,W,1,05,1.9,81.3,M,-24.5,M,,0000*5C

@,!,359,&,100808
$GPGGA,191804.000,3827.5463,N,12241.0016,W,1,05,1.9,81.1,M,-24.5,M,,0000*59

@,!,360,&,100802
$GPGGA,191805.000,3827.5463,N,12241.0016,W,1,05,1.9,80.9,M,-24.5,M,,0000*51

@,!,360,&,100814
$GPGGA,191806.000,3827.5462,N,12241.0018,W,1,05,1.9,80.1,M,-24.5,M,,0000*55

@,!,361,&,100811
$GPGGA,191807.000,3827.5461,N,12241.0021,W,1,05,1.9,78.5,M,-24.5,M,,0000*5E

@,!,361,&,100802
$GPGGA,191808.000,3827.5462,N,12241.0020,W,1,05,1.9,78.7,M,-24.5,M,,0000*51

@,!,362,&,100814
$GPGGA,191809.000,3827.5462,N,12241.0020,W,1,05,1.9,78.5,M,-24.5,M,,0000*52

@,!,361,&,100805
$GPGGA,191810.000,3827.5461,N,12241.0023,W,1,05,1.9,77.2,M,-24.5,M,,0000*52

@,!,361,&,100808
$GPGGA,191811.000,3827.5459,N,12241.0025,W,1,05,1.9,76.0,M,-24.5,M,,0000*5D

@,!,361,&,100805
$GPGGA,191812.000,3827.5459,N,12241.0027,W,1,05,1.9,75.2,M,-24.5,M,,0000*5D

@,!,360,&,100814
$GPGGA,191813.000,3827.5458,N,12241.0027,W,1,05,1.9,74.9,M,-24.5,M,,0000*57

@,!,360,&,100811
$GPGGA,191814.000,3827.5459,N,12241.0027,W,1,05,1.9,75.0,M,-24.5,M,,0000*59

@,!,360,&,100802
$GPGGA,191815.000,3827.5459,N,12241.0027,W,1,04,2.7,74.7,M,-24.5,M,,0000*52

@,!,360,&,100811
$GPGGA,191816.000,3827.5459,N,12241.0029,W,1,04,2.7,74.1,M,-24.5,M,,0000*59

@,!,361,&,100811
$GPGGA,191817.000,3827.5459,N,12241.0029,W,1,04,2.7,73.7,M,-24.5,M,,0000*59

@,!,361,&,100811
$GPGGA,191818.000,3827.5459,N,12241.0030,W,1,04,2.7,73.5,M,-24.5,M,,0000*5C

@,!,361,&,100817
$GPGGA,191819.000,3827.5460,N,12241.0030,W,1,04,2.7,73.4,M,-24.5,M,,0000*56

@,!,362,&,100811
$GPGGA,191820.000,3827.5461,N,12241.0032,W,1,05,1.9,73.0,M,-24.5,M,,0000*57

@,!,362,&,100808
$GPGGA,191821.000,3827.5461,N,12241.0032,W,1,04,2.7,73.2,M,-24.5,M,,0000*58

@,!,363,&,100808
$GPGGA,191822.000,3827.5462,N,12241.0031,W,1,04,2.7,73.6,M,-24.5,M,,0000*5F

@,!,363,&,100802
$GPGGA,191823.000,3827.5464,N,12241.0033,W,1,05,1.9,73.1,M,-24.5,M,,0000*51

@,!,364,&,100805
$GPGGA,191824.000,3827.5465,N,12241.0037,W,1,05,1.9,71.7,M,-24.5,M,,0000*57

@,!,364,&,100808
$GPGGA,191825.000,3827.5465,N,12241.0040,W,1,05,1.9,70.4,M,-24.5,M,,0000*54

@,!,365,&,100808
$GPGGA,191826.000,3827.5464,N,12241.0043,W,1,05,1.9,69.2,M,-24.5,M,,0000*5B

@,!,365,&,100818
$GPGGA,191827.000,3827.5465,N,12241.0041,W,1,05,1.9,69.6,M,-24.5,M,,0000*5D

@,!,365,&,100815
$GPGGA,191828.000,3827.5466,N,12241.0044,W,1,05,1.9,68.7,M,-24.5,M,,0000*54

@,!,365,&,100815
$GPGGA,191829.000,3827.5466,N,12241.0045,W,1,04,2.7,68.2,M,-24.5,M,,0000*5D

@,!,366,&,100803
$GPGGA,191830.000,3827.5465,N,12241.0047,W,1,04,2.7,67.4,M,-24.5,M,,0000*5D

@,!,366,&,100812
$GPGGA,191831.000,3827.5465,N,12241.0046,W,1,04,2.7,67.5,M,-24.5,M,,0000*5C

@,!,366,&,100812
$GPGGA,191832.000,3827.5466,N,12241.0046,W,1,04,2.7,67.8,M,-24.5,M,,0000*51

@,!,365,&,100809
$GPGGA,191833.000,3827.5464,N,12241.0050,W,1,04,2.7,65.7,M,-24.5,M,,0000*58

@,!,364,&,100811
$GPGGA,191834.000,3827.5464,N,12241.0052,W,1,04,2.7,64.6,M,-24.5,M,,0000*5D

@,!,364,&,100805
$GPGGA,191835.000,3827.5463,N,12241.0054,W,1,04,2.7,63.3,M,-24.5,M,,0000*5F

@,!,365,&,100812
$GPGGA,191836.000,3827.5462,N,12241.0057,W,1,04,2.7,61.9,M,-24.5,M,,0000*56

@,!,365,&,100815
$GPGGA,191837.000,3827.5461,N,12241.0057,W,1,05,1.9,61.5,M,-24.5,M,,0000*54

@,!,365,&,100815
$GPGGA,191838.000,3827.5460,N,12241.0055,W,1,05,1.9,62.0,M,-24.5,M,,0000*5E

@,!,365,&,100806
$GPGGA,191839.000,3827.5460,N,12241.0055,W,1,05,1.9,61.9,M,-24.5,M,,0000*55

@,!,365,&,100812
$GPGGA,191840.000,3827.5460,N,12241.0053,W,1,05,1.9,62.3,M,-24.5,M,,0000*54

@,!,365,&,100802
$GPGGA,191841.000,3827.5459,N,12241.0053,W,1,05,1.9,62.3,M,-24.5,M,,0000*5F

@,!,365,&,100809
$GPGGA,191842.000,3827.5459,N,12241.0053,W,1,05,1.9,62.1,M,-24.5,M,,0000*5E

@,!,365,&,100812
$GPGGA,191843.000,3827.5459,N,12241.0055,W,1,05,1.9,61.2,M,-24.5,M,,0000*59

@,!,364,&,100817
$GPGGA,191844.000,3827.5459,N,12241.0058,W,1,05,1.9,60.1,M,-24.5,M,,0000*51

@,!,361,&,100760
$GPGGA,191845.000,3827.5458,N,12241.0058,W,1,05,1.9,60.7,M,-24.5,M,,0000*57

@,!,363,&,100838
$GPGGA,191846.000,3827.5457,N,12241.0056,W,1,05,1.9,60.3,M,-24.5,M,,0000*51

@,!,362,&,100835
$GPGGA,191847.000,3827.5456,N,12241.0055,W,1,05,1.9,61.0,M,-24.5,M,,0000*50

@,!,362,&,100832
$GPGGA,191848.000,3827.5455,N,12241.0053,W,1,05,1.9,62.2,M,-24.5,M,,0000*5B

@,!,361,&,100832
$GPGGA,191849.000,3827.5456,N,12241.0051,W,1,05,1.9,63.9,M,-24.5,M,,0000*51

@,!,359,&,100829
$GPGGA,191850.000,3827.5456,N,12241.0049,W,1,05,1.9,65.3,M,-24.5,M,,0000*5C

@,!,358,&,100846
$GPGGA,191851.000,3827.5456,N,12241.0047,W,1,05,1.9,66.6,M,-24.5,M,,0000*55

@,!,358,&,100849
$GPGGA,191852.000,3827.5457,N,12241.0045,W,1,05,1.9,68.0,M,-24.5,M,,0000*5D

@,!,357,&,100843
$GPGGA,191853.000,3827.5457,N,12241.0043,W,1,05,1.9,69.3,M,-24.5,M,,0000*58

@,!,356,&,100831
$GPGGA,191854.000,3827.5456,N,12241.0047,W,1,06,1.5,67.8,M,-24.5,M,,0000*50

@,!,354,&,100819
$GPGGA,191855.000,3827.5455,N,12241.0050,W,1,06,1.5,66.6,M,-24.5,M,,0000*5B

@,!,353,&,100831
$GPGGA,191856.000,3827.5455,N,12241.0049,W,1,06,1.5,67.7,M,-24.5,M,,0000*50

@,!,353,&,100828
$GPGGA,191857.000,3827.5455,N,12241.0047,W,1,06,1.5,69.1,M,-24.5,M,,0000*57

@,!,352,&,100834
$GPGGA,191858.000,3827.5455,N,12241.0045,W,1,06,1.5,70.2,M,-24.5,M,,0000*51

@,!,352,&,100843
$GPGGA,191859.000,3827.5456,N,12241.0043,W,1,06,1.5,71.5,M,-24.5,M,,0000*53

@,!,352,&,100836
$GPGGA,191900.000,3827.5456,N,12241.0041,W,1,06,1.5,72.4,M,-24.5,M,,0000*5E

@,!,351,&,100833
$GPGGA,191901.000,3827.5456,N,12241.0040,W,1,06,1.5,73.1,M,-24.5,M,,0000*5A

@,!,351,&,100844
$GPGGA,191902.000,3827.5456,N,12241.0040,W,1,06,1.5,73.5,M,-24.5,M,,0000*5D

@,!,351,&,100830
$GPGGA,191903.000,3827.5455,N,12241.0040,W,1,06,1.5,73.8,M,-24.5,M,,0000*52

@,!,350,&,100847
$GPGGA,191904.000,3827.5455,N,12241.0041,W,1,06,1.5,73.6,M,-24.5,M,,0000*5A

@,!,350,&,100827
$GPGGA,191905.000,3827.5455,N,12241.0040,W,1,06,1.5,74.0,M,-24.5,M,,0000*5B

@,!,350,&,100833
$GPGGA,191906.000,3827.5455,N,12241.0041,W,1,06,1.5,73.6,M,-24.5,M,,0000*58

@,!,350,&,100824
$GPGGA,191907.000,3827.5455,N,12241.0042,W,1,06,1.5,72.9,M,-24.5,M,,0000*54

@,!,350,&,100827
$GPGGA,191908.000,3827.5455,N,12241.0043,W,1,06,1.5,71.9,M,-24.5,M,,0000*59

@,!,349,&,100824
$GPGGA,191909.000,3827.5453,N,12241.0045,W,1,06,1.5,71.8,M,-24.5,M,,0000*59

@,!,348,&,100836
$GPGGA,191910.000,3827.5452,N,12241.0048,W,1,06,1.5,70.6,M,-24.5,M,,0000*52

@,!,348,&,100836
$GPGGA,191911.000,3827.5451,N,12241.0051,W,1,06,1.5,69.3,M,-24.5,M,,0000*55

@,!,348,&,100836
$GPGGA,191912.000,3827.5450,N,12241.0052,W,1,06,1.5,68.0,M,-24.5,M,,0000*56

@,!,348,&,100839
$GPGGA,191913.000,3827.5449,N,12241.0052,W,1,05,1.9,67.1,M,-24.5,M,,0000*5E

@,!,348,&,100827
$GPGGA,191914.000,3827.5448,N,12241.0053,W,1,05,1.9,65.8,M,-24.5,M,,0000*52

@,!,348,&,100839
$GPGGA,191915.000,3827.5449,N,12241.0053,W,1,05,1.9,65.3,M,-24.5,M,,0000*59

@,!,348,&,100833
$GPGGA,191916.000,3827.5449,N,12241.0052,W,1,05,1.9,64.9,M,-24.5,M,,0000*50

@,!,348,&,100833
$GPGGA,191917.000,3827.5448,N,12241.0053,W,1,05,1.9,64.6,M,-24.5,M,,0000*5E

@,!,348,&,100830
$GPGGA,191918.000,3827.5449,N,12241.0052,W,1,05,1.9,64.6,M,-24.5,M,,0000*51

@,!,348,&,100833
$GPGGA,191919.000,3827.5449,N,12241.0052,W,1,05,1.9,64.5,M,-24.5,M,,0000*53

@,!,348,&,100833
$GPGGA,191920.000,3827.5448,N,12241.0053,W,1,05,1.9,63.9,M,-24.5,M,,0000*52

@,!,348,&,100821
$GPGGA,191921.000,3827.5448,N,12241.0053,W,1,05,1.9,64.0,M,-24.5,M,,0000*5D

@,!,348,&,100833
$GPGGA,191922.000,3827.5447,N,12241.0053,W,1,04,2.0,63.7,M,-24.5,M,,0000*5A

@,!,348,&,100839
$GPGGA,191923.000,3827.5447,N,12241.0052,W,1,05,1.9,63.7,M,-24.5,M,,0000*51

@,!,348,&,100827
$GPGGA,191924.000,3827.5448,N,12241.0052,W,1,05,1.9,63.4,M,-24.5,M,,0000*5A

@,!,348,&,100836
$GPGGA,191925.000,3827.5448,N,12241.0051,W,1,05,1.9,62.7,M,-24.5,M,,0000*5A

@,!,348,&,100833
$GPGGA,191926.000,3827.5449,N,12241.0050,W,1,05,1.9,62.8,M,-24.5,M,,0000*56

@,!,348,&,100833
$GPGGA,191927.000,3827.5450,N,12241.0048,W,1,05,1.9,64.1,M,-24.5,M,,0000*59

@,!,348,&,100847
$GPGGA,191928.000,3827.5451,N,12241.0046,W,1,05,1.9,64.7,M,-24.5,M,,0000*5F

@,!,348,&,100833
$GPGGA,191929.000,3827.5452,N,12241.0044,W,1,05,1.9,65.6,M,-24.5,M,,0000*5F

@,!,348,&,100827
$GPGGA,191930.000,3827.5452,N,12241.0043,W,1,05,1.9,66.5,M,-24.5,M,,0000*50

@,!,348,&,100844
$GPGGA,191931.000,3827.5453,N,12241.0041,W,1,05,1.9,67.2,M,-24.5,M,,0000*54

@,!,348,&,100833
$GPGGA,191932.000,3827.5453,N,12241.0040,W,1,05,1.9,68.1,M,-24.5,M,,0000*5A

@,!,348,&,100836
$GPGGA,191933.000,3827.5454,N,12241.0038,W,1,05,1.9,69.0,M,-24.5,M,,0000*53

@,!,348,&,100836
$GPGGA,191934.000,3827.5455,N,12241.0036,W,1,05,1.9,69.9,M,-24.5,M,,0000*52

@,!,348,&,100830
$GPGGA,191935.000,3827.5456,N,12241.0034,W,1,05,1.9,70.7,M,-24.5,M,,0000*54

@,!,348,&,100833
$GPGGA,191936.000,3827.5457,N,12241.0032,W,1,05,1.9,71.5,M,-24.5,M,,0000*53

@,!,348,&,100827
$GPGGA,191937.000,3827.5456,N,12241.0033,W,1,05,1.9,71.1,M,-24.5,M,,0000*56

@,!,348,&,100830
$GPGGA,191938.000,3827.5455,N,12241.0034,W,1,05,1.9,70.7,M,-24.5,M,,0000*5A

@,!,348,&,100844
$GPGGA,191939.000,3827.5455,N,12241.0034,W,1,05,1.9,70.4,M,-24.5,M,,0000*58

@,!,348,&,100833
$GPGGA,191940.000,3827.5454,N,12241.0035,W,1,05,1.9,70.0,M,-24.5,M,,0000*52

@,!,348,&,100833
$GPGGA,191941.000,3827.5454,N,12241.0036,W,1,05,1.9,69.7,M,-24.5,M,,0000*5F

@,!,348,&,100830
$GPGGA,191942.000,3827.5453,N,12241.0038,W,1,05,1.9,69.0,M,-24.5,M,,0000*52

@,!,348,&,100833
$GPGGA,191943.000,3827.5452,N,12241.0039,W,1,05,1.9,68.3,M,-24.5,M,,0000*51

@,!,348,&,100836
$GPGGA,191944.000,3827.5451,N,12241.0041,W,1,05,1.9,67.5,M,-24.5,M,,0000*53

@,!,347,&,100830
$GPGGA,191945.000,3827.5451,N,12241.0042,W,1,05,1.9,66.8,M,-24.5,M,,0000*5D

@,!,347,&,100830
$GPGGA,191946.000,3827.5450,N,12241.0043,W,1,05,1.9,66.2,M,-24.5,M,,0000*54

@,!,347,&,100821
$GPGGA,191947.000,3827.5450,N,12241.0044,W,1,05,1.9,65.7,M,-24.5,M,,0000*54

@,!,347,&,100833
$GPGGA,191948.000,3827.5449,N,12241.0044,W,1,05,1.9,65.2,M,-24.5,M,,0000*56

@,!,347,&,100836
$GPGGA,191949.000,3827.5449,N,12241.0045,W,1,05,1.9,64.9,M,-24.5,M,,0000*5C

@,!,347,&,100830
$GPGGA,191950.000,3827.5449,N,12241.0045,W,1,05,1.9,64.7,M,-24.5,M,,0000*5A

@,!,347,&,100814
$GPGGA,191951.000,3827.5449,N,12241.0045,W,1,05,1.9,64.4,M,-24.5,M,,0000*58

@,!,347,&,100833
$GPGGA,191952.000,3827.5449,N,12241.0046,W,1,05,1.9,64.2,M,-24.5,M,,0000*5E

@,!,347,&,100847
$GPGGA,191953.000,3827.5449,N,12241.0046,W,1,05,1.9,64.1,M,-24.5,M,,0000*5C

@,!,347,&,100839
$GPGGA,191954.000,3827.5447,N,12241.0051,W,1,05,1.9,61.5,M,-24.5,M,,0000*52

@,!,347,&,100833
$GPGGA,191955.000,3827.5447,N,12241.0050,W,1,05,1.9,61.6,M,-24.5,M,,0000*51

@,!,347,&,100830
$GPGGA,191956.000,3827.5447,N,12241.0050,W,1,05,1.9,61.5,M,-24.5,M,,0000*51

@,!,347,&,100836
$GPGGA,191957.000,3827.5447,N,12241.0050,W,1,05,1.9,61.4,M,-24.5,M,,0000*51

@,!,347,&,100847
$GPGGA,191958.000,3827.5448,N,12241.0049,W,1,05,1.9,61.7,M,-24.5,M,,0000*5A

@,!,347,&,100839
$GPGGA,191959.000,3827.5448,N,12241.0049,W,1,05,1.9,62.0,M,-24.5,M,,0000*5F

@,!,347,&,100844
$GPGGA,192000.000,3827.5449,N,12241.0048,W,1,05,1.9,62.3,M,-24.5,M,,0000*5A

@,!,347,&,100839
$GPGGA,192001.000,3827.5449,N,12241.0048,W,1,05,1.9,62.2,M,-24.5,M,,0000*5A

@,!,347,&,100836
$GPGGA,192002.000,3827.5449,N,12241.0048,W,1,05,1.9,62.2,M,-24.5,M,,0000*59

@,!,346,&,100836
$GPGGA,192003.000,3827.5449,N,12241.0048,W,1,05,1.9,62.2,M,-24.5,M,,0000*58

@,!,346,&,100829
$GPGGA,192004.000,3827.5449,N,12241.0048,W,1,05,1.9,62.1,M,-24.5,M,,0000*5C

@,!,346,&,100826
$GPGGA,192005.000,3827.5449,N,12241.0048,W,1,05,1.9,61.9,M,-24.5,M,,0000*56

@,!,346,&,100817
$GPGGA,192006.000,3827.5449,N,12241.0049,W,1,05,1.9,61.7,M,-24.5,M,,0000*5A

@,!,346,&,100829
$GPGGA,192007.000,3827.5449,N,12241.0049,W,1,05,2.0,61.3,M,-24.5,M,,0000*55

@,!,346,&,100832
$GPGGA,192008.000,3827.5449,N,12241.0050,W,1,05,2.0,61.0,M,-24.5,M,,0000*51

@,!,346,&,100826
$GPGGA,192009.000,3827.5449,N,12241.0050,W,1,05,2.0,60.7,M,-24.5,M,,0000*56

@,!,346,&,100826
$GPGGA,192010.000,3827.5448,N,12241.0051,W,1,05,2.0,60.4,M,-24.5,M,,0000*5D

@,!,346,&,100823
$GPGGA,192011.000,3827.5448,N,12241.0052,W,1,06,1.5,59.9,M,-24.5,M,,0000*5D

@,!,346,&,100832
$GPGGA,192012.000,3827.5448,N,12241.0052,W,1,06,1.5,59.6,M,-24.5,M,,0000*51

@,!,346,&,100826
$GPGGA,192013.000,3827.5449,N,12241.0052,W,1,06,1.5,59.4,M,-24.5,M,,0000*53

@,!,346,&,100829
$GPGGA,192014.000,3827.5449,N,12241.0050,W,1,06,1.5,60.1,M,-24.5,M,,0000*59

@,!,346,&,100844
$GPGGA,192015.000,3827.5450,N,12241.0049,W,1,06,1.5,60.6,M,-24.5,M,,0000*5F

@,!,346,&,100839
$GPGGA,192016.000,3827.5450,N,12241.0048,W,1,06,1.5,60.8,M,-24.5,M,,0000*53

@,!,346,&,100826
$GPGGA,192017.000,3827.5451,N,12241.0046,W,1,06,1.5,61.6,M,-24.5,M,,0000*52

@,!,346,&,100826
$GPGGA,192018.000,3827.5451,N,12241.0045,W,1,06,1.5,62.1,M,-24.5,M,,0000*5A

@,!,346,&,100820
$GPGGA,192019.000,3827.5452,N,12241.0043,W,1,06,1.5,63.1,M,-24.5,M,,0000*5F

@,!,346,&,100820
$GPGGA,192020.000,3827.5452,N,12241.0042,W,1,06,1.5,63.5,M,-24.5,M,,0000*50

@,!,346,&,100835
$GPGGA,192021.000,3827.5452,N,12241.0042,W,1,06,1.5,63.6,M,-24.5,M,,0000*52

@,!,346,&,100823
$GPGGA,192022.000,3827.5452,N,12241.0042,W,1,05,2.0,64.0,M,-24.5,M,,0000*55

@,!,346,&,100835
$GPGGA,192023.000,3827.5452,N,12241.0041,W,1,05,2.0,64.3,M,-24.5,M,,0000*54

@,!,346,&,100832
$GPGGA,192024.000,3827.5452,N,12241.0041,W,1,05,2.0,64.7,M,-24.5,M,,0000*57

@,!,346,&,100835
$GPGGA,192025.000,3827.5451,N,12241.0042,W,1,05,2.0,64.5,M,-24.5,M,,0000*54

@,!,345,&,100826
$GPGGA,192026.000,3827.5450,N,12241.0044,W,1,05,2.0,63.7,M,-24.5,M,,0000*55

@,!,345,&,100829
$GPGGA,192027.000,3827.5449,N,12241.0045,W,1,05,2.0,63.1,M,-24.5,M,,0000*5B

@,!,345,&,100838
$GPGGA,192028.000,3827.5448,N,12241.0047,W,1,05,2.0,62.6,M,-24.5,M,,0000*51

@,!,345,&,100829
$GPGGA,192029.000,3827.5447,N,12241.0048,W,1,05,2.0,62.0,M,-24.5,M,,0000*56

@,!,345,&,100832
$GPGGA,192030.000,3827.5446,N,12241.0049,W,1,04,2.8,61.4,M,-24.5,M,,0000*50

@,!,345,&,100832
$GPGGA,192031.000,3827.5445,N,12241.0049,W,1,05,2.0,61.5,M,-24.5,M,,0000*5A

@,!,345,&,100832
$GPGGA,192032.000,3827.5444,N,12241.0049,W,1,05,2.0,61.4,M,-24.5,M,,0000*59

@,!,345,&,100835
$GPGGA,192033.000,3827.5444,N,12241.0049,W,1,06,1.5,61.4,M,-24.5,M,,0000*5D

@,!,345,&,100844
$GPGGA,192034.000,3827.5443,N,12241.0050,W,1,06,1.5,61.0,M,-24.5,M,,0000*51

@,!,345,&,100829
$GPGGA,192035.000,3827.5443,N,12241.0051,W,1,06,1.5,60.7,M,-24.5,M,,0000*57

@,!,345,&,100835
$GPGGA,192036.000,3827.5443,N,12241.0050,W,1,06,1.5,61.4,M,-24.5,M,,0000*57

@,!,345,&,100838
$GPGGA,192037.000,3827.5442,N,12241.0048,W,1,06,1.5,62.3,M,-24.5,M,,0000*5A

@,!,344,&,100826
$GPGGA,192038.000,3827.5442,N,12241.0050,W,1,06,1.5,62.2,M,-24.5,M,,0000*5D

@,!,344,&,100829
$GPGGA,192039.000,3827.5442,N,12241.0050,W,1,06,1.5,62.4,M,-24.5,M,,0000*5A

@,!,344,&,100832
$GPGGA,192040.000,3827.5443,N,12241.0051,W,1,06,1.5,62.3,M,-24.5,M,,0000*53

@,!,343,&,100838
$GPGGA,192041.000,3827.5443,N,12241.0051,W,1,06,1.5,62.4,M,-24.5,M,,0000*55

@,!,342,&,100832
$GPGGA,192042.000,3827.5443,N,12241.0051,W,1,06,1.5,62.7,M,-24.5,M,,0000*55

@,!,342,&,100832
$GPGGA,192043.000,3827.5443,N,12241.0049,W,1,06,1.5,63.7,M,-24.5,M,,0000*5C

@,!,341,&,100838
$GPGGA,192044.000,3827.5444,N,12241.0048,W,1,06,1.5,64.2,M,-24.5,M,,0000*5F

@,!,341,&,100832
$GPGGA,192045.000,3827.5444,N,12241.0047,W,1,06,1.5,64.4,M,-24.5,M,,0000*57

@,!,340,&,100822
$GPGGA,192046.000,3827.5444,N,12241.0047,W,1,06,1.5,64.5,M,-24.5,M,,0000*55

@,!,340,&,100828
$GPGGA,192047.000,3827.5445,N,12241.0046,W,1,06,1.5,65.0,M,-24.5,M,,0000*50

@,!,339,&,100834
$GPGGA,192048.000,3827.5445,N,12241.0045,W,1,06,1.5,65.0,M,-24.5,M,,0000*5C

@,!,339,&,100831
$GPGGA,192049.000,3827.5444,N,12241.0046,W,1,06,1.5,65.1,M,-24.5,M,,0000*5E

@,!,338,&,100825
$GPGGA,192050.000,3827.5443,N,12241.0047,W,1,06,1.5,64.5,M,-24.5,M,,0000*55

@,!,338,&,100837
$GPGGA,192051.000,3827.5443,N,12241.0048,W,1,06,1.5,64.2,M,-24.5,M,,0000*5C

@,!,338,&,100834
$GPGGA,192052.000,3827.5443,N,12241.0048,W,1,06,1.5,64.5,M,-24.5,M,,0000*58

@,!,338,&,100834
$GPGGA,192053.000,3827.5443,N,12241.0047,W,1,06,1.5,64.9,M,-24.5,M,,0000*5A

@,!,338,&,100828
$GPGGA,192054.000,3827.5443,N,12241.0046,W,1,06,1.5,65.1,M,-24.5,M,,0000*55

@,!,337,&,100828
$GPGGA,192055.000,3827.5444,N,12241.0045,W,1,06,1.5,65.6,M,-24.5,M,,0000*57

@,!,337,&,100831
$GPGGA,192056.000,3827.5443,N,12241.0045,W,1,06,1.5,65.9,M,-24.5,M,,0000*5C

@,!,337,&,100828
$GPGGA,192057.000,3827.5443,N,12241.0045,W,1,06,1.5,65.7,M,-24.5,M,,0000*53

@,!,337,&,100828
$GPGGA,192058.000,3827.5444,N,12241.0044,W,1,06,1.5,66.2,M,-24.5,M,,0000*5C

@,!,337,&,100845
$GPGGA,192059.000,3827.5444,N,12241.0043,W,1,06,1.5,66.7,M,-24.5,M,,0000*5F

@,!,337,&,100848
$GPGGA,192100.000,3827.5445,N,12241.0042,W,1,06,1.5,67.1,M,-24.5,M,,0000*55

@,!,337,&,100831
$GPGGA,192101.000,3827.5445,N,12241.0042,W,1,06,1.5,67.2,M,-24.5,M,,0000*57

@,!,336,&,100831
$GPGGA,192102.000,3827.5445,N,12241.0041,W,1,06,1.5,67.8,M,-24.5,M,,0000*5D

@,!,336,&,100851
$GPGGA,192103.000,3827.5446,N,12241.0040,W,1,06,1.5,68.4,M,-24.5,M,,0000*5D

@,!,336,&,100831
$GPGGA,192104.000,3827.5446,N,12241.0038,W,1,06,1.5,69.3,M,-24.5,M,,0000*53

@,!,336,&,100834
$GPGGA,192105.000,3827.5447,N,12241.0039,W,1,06,1.5,69.4,M,-24.5,M,,0000*55

@,!,336,&,100831
$GPGGA,192106.000,3827.5447,N,12241.0039,W,1,06,1.5,69.4,M,-24.5,M,,0000*56

@,!,336,&,100834
$GPGGA,192107.000,3827.5447,N,12241.0039,W,1,06,1.5,69.5,M,-24.5,M,,0000*56

@,!,336,&,100843
$GPGGA,192108.000,3827.5447,N,12241.0039,W,1,05,1.6,69.3,M,-24.5,M,,0000*5F

@,!,336,&,100845
$GPGGA,192109.000,3827.5446,N,12241.0040,W,1,05,1.6,68.9,M,-24.5,M,,0000*5A

@,!,335,&,100827
$GPGGA,192110.000,3827.5446,N,12241.0041,W,1,06,1.5,68.8,M,-24.5,M,,0000*52

@,!,335,&,100824
$GPGGA,192111.000,3827.5447,N,12241.0042,W,1,06,1.5,69.0,M,-24.5,M,,0000*58

@,!,335,&,100833
$GPGGA,192112.000,3827.5447,N,12241.0043,W,1,06,1.5,68.3,M,-24.5,M,,0000*58

@,!,335,&,100827
$GPGGA,192113.000,3827.5446,N,12241.0043,W,1,06,1.5,68.5,M,-24.5,M,,0000*5E

@,!,335,&,100827
$GPGGA,192114.000,3827.5446,N,12241.0042,W,1,06,1.5,68.8,M,-24.5,M,,0000*55

@,!,335,&,100833
$GPGGA,192115.000,3827.5447,N,12241.0042,W,1,06,1.5,68.9,M,-24.5,M,,0000*54

@,!,335,&,100837
$GPGGA,192116.000,3827.5447,N,12241.0041,W,1,06,1.5,68.6,M,-24.5,M,,0000*5B

@,!,335,&,100827
$GPGGA,192117.000,3827.5446,N,12241.0041,W,1,06,1.5,68.5,M,-24.5,M,,0000*58

@,!,335,&,100843
$GPGGA,192118.000,3827.5445,N,12241.0041,W,1,06,1.5,68.2,M,-24.5,M,,0000*53

@,!,335,&,100830
$GPGGA,192119.000,3827.5444,N,12241.0041,W,1,06,1.5,68.2,M,-24.5,M,,0000*53

@,!,335,&,100827
$GPGGA,192120.000,3827.5444,N,12241.0040,W,1,06,1.5,68.5,M,-24.5,M,,0000*5F

@,!,335,&,100843
$GPGGA,192121.000,3827.5445,N,12241.0039,W,1,06,1.5,68.7,M,-24.5,M,,0000*53

@,!,335,&,100824
$GPGGA,192122.000,3827.5445,N,12241.0038,W,1,06,1.5,69.3,M,-24.5,M,,0000*54

@,!,336,&,100848
$GPGGA,192123.000,3827.5446,N,12241.0037,W,1,06,1.5,69.5,M,-24.5,M,,0000*5F

@,!,336,&,100831
$GPGGA,192124.000,3827.5446,N,12241.0037,W,1,06,1.5,69.4,M,-24.5,M,,0000*59

@,!,335,&,100827
$GPGGA,192125.000,3827.5446,N,12241.0037,W,1,06,1.5,69.5,M,-24.5,M,,0000*59

@,!,336,&,100837
$GPGGA,192126.000,3827.5446,N,12241.0037,W,1,06,1.5,69.7,M,-24.5,M,,0000*58

@,!,335,&,100824
$GPGGA,192127.000,3827.5447,N,12241.0036,W,1,06,1.5,70.1,M,-24.5,M,,0000*57

@,!,335,&,100843
$GPGGA,192128.000,3827.5447,N,12241.0037,W,1,06,1.5,69.6,M,-24.5,M,,0000*56

@,!,335,&,100827
$GPGGA,192129.000,3827.5447,N,12241.0039,W,1,06,1.5,69.1,M,-24.5,M,,0000*5E

@,!,335,&,100824
$GPGGA,192130.000,3827.5447,N,12241.0040,W,1,06,1.5,68.7,M,-24.5,M,,0000*5F

@,!,334,&,100824
$GPGGA,192131.000,3827.5447,N,12241.0040,W,1,06,1.5,68.8,M,-24.5,M,,0000*51

@,!,334,&,100827
$GPGGA,192132.000,3827.5447,N,12241.0040,W,1,06,1.5,69.0,M,-24.5,M,,0000*5B

@,!,333,&,100827
$GPGGA,192133.000,3827.5448,N,12241.0039,W,1,06,1.5,69.1,M,-24.5,M,,0000*5A

@,!,333,&,100830
$GPGGA,192134.000,3827.5449,N,12241.0039,W,1,06,1.5,69.4,M,-24.5,M,,0000*59

@,!,332,&,100836
$GPGGA,192135.000,3827.5449,N,12241.0038,W,1,06,1.5,69.7,M,-24.5,M,,0000*5A

@,!,332,&,100836
$GPGGA,192136.000,3827.5449,N,12241.0038,W,1,06,1.5,70.0,M,-24.5,M,,0000*56

@,!,332,&,100830
$GPGGA,192137.000,3827.5449,N,12241.0037,W,1,06,1.5,70.4,M,-24.5,M,,0000*5C

@,!,331,&,100836
$GPGGA,192138.000,3827.5449,N,12241.0036,W,1,06,1.5,70.8,M,-24.5,M,,0000*5E

@,!,331,&,100830
$GPGGA,192139.000,3827.5449,N,12241.0037,W,1,06,1.5,70.3,M,-24.5,M,,0000*55

@,!,330,&,100827
$GPGGA,192140.000,3827.5449,N,12241.0038,W,1,06,1.5,69.9,M,-24.5,M,,0000*56

@,!,330,&,100824
$GPGGA,192141.000,3827.5448,N,12241.0040,W,1,06,1.5,69.1,M,-24.5,M,,0000*51

@,!,330,&,100832
$GPGGA,192142.000,3827.5448,N,12241.0042,W,1,06,1.5,68.4,M,-24.5,M,,0000*54

@,!,329,&,100826
$GPGGA,192143.000,3827.5447,N,12241.0043,W,1,06,1.5,67.8,M,-24.5,M,,0000*58

@,!,329,&,100832
$GPGGA,192144.000,3827.5447,N,12241.0043,W,1,06,1.5,67.6,M,-24.5,M,,0000*51

@,!,329,&,100832
$GPGGA,192145.000,3827.5447,N,12241.0044,W,1,06,1.5,67.2,M,-24.5,M,,0000*53

@,!,329,&,100832
$GPGGA,192146.000,3827.5447,N,12241.0045,W,1,06,1.5,66.8,M,-24.5,M,,0000*5A

@,!,329,&,100829
$GPGGA,192147.000,3827.5447,N,12241.0044,W,1,06,1.5,67.2,M,-24.5,M,,0000*51

@,!,329,&,100829
$GPGGA,192148.000,3827.5447,N,12241.0044,W,1,06,1.5,67.0,M,-24.5,M,,0000*5C

@,!,328,&,100829
$GPGGA,192149.000,3827.5447,N,12241.0044,W,1,06,1.5,67.3,M,-24.5,M,,0000*5E

@,!,329,&,100829
$GPGGA,192150.000,3827.5448,N,12241.0043,W,1,06,1.5,67.7,M,-24.5,M,,0000*5A

@,!,329,&,100829
$GPGGA,192151.000,3827.5448,N,12241.0042,W,1,06,1.5,68.1,M,-24.5,M,,0000*53

@,!,328,&,100826
$GPGGA,192152.000,3827.5448,N,12241.0042,W,1,06,1.5,68.0,M,-24.5,M,,0000*51

@,!,329,&,100832
$GPGGA,192153.000,3827.5448,N,12241.0042,W,1,06,1.5,67.9,M,-24.5,M,,0000*56

@,!,329,&,100835
$GPGGA,192154.000,3827.5448,N,12241.0043,W,1,06,1.5,67.6,M,-24.5,M,,0000*5F

@,!,329,&,100829
$GPGGA,192155.000,3827.5447,N,12241.0043,W,1,06,1.5,68.0,M,-24.5,M,,0000*58

@,!,328,&,100826
$GPGGA,192156.000,3827.5448,N,12241.0041,W,1,06,1.5,68.7,M,-24.5,M,,0000*51

@,!,329,&,100829
$GPGGA,192157.000,3827.5449,N,12241.0039,W,1,06,1.5,69.6,M,-24.5,M,,0000*5E

@,!,329,&,100829
$GPGGA,192158.000,3827.5449,N,12241.0038,W,1,06,1.5,69.9,M,-24.5,M,,0000*5F

@,!,329,&,100829
$GPGGA,192159.000,3827.5449,N,12241.0038,W,1,06,1.5,70.2,M,-24.5,M,,0000*5D

@,!,329,&,100826
$GPGGA,192200.000,3827.5449,N,12241.0036,W,1,06,1.5,70.8,M,-24.5,M,,0000*56

@,!,329,&,100832
$GPGGA,192201.000,3827.5450,N,12241.0034,W,1,06,1.5,71.8,M,-24.5,M,,0000*5C

@,!,329,&,100835
$GPGGA,192202.000,3827.5451,N,12241.0033,W,1,06,1.5,72.2,M,-24.5,M,,0000*50

@,!,329,&,100838
$GPGGA,192203.000,3827.5451,N,12241.0034,W,1,06,1.5,71.8,M,-24.5,M,,0000*5F

@,!,329,&,100832
$GPGGA,192204.000,3827.5450,N,12241.0034,W,1,06,1.5,71.6,M,-24.5,M,,0000*57

@,!,329,&,100829
$GPGGA,192205.000,3827.5450,N,12241.0035,W,1,06,1.5,71.3,M,-24.5,M,,0000*52

@,!,329,&,100820
$GPGGA,192206.000,3827.5450,N,12241.0035,W,1,06,1.5,71.2,M,-24.5,M,,0000*50

@,!,329,&,100832
$GPGGA,192207.000,3827.5450,N,12241.0035,W,1,06,1.5,71.1,M,-24.5,M,,0000*52

@,!,329,&,100835
$GPGGA,192208.000,3827.5450,N,12241.0035,W,1,06,1.5,70.9,M,-24.5,M,,0000*54

@,!,329,&,100835
$GPGGA,192209.000,3827.5450,N,12241.0035,W,1,06,1.5,70.8,M,-24.5,M,,0000*54

@,!,329,&,100832
$GPGGA,192210.000,3827.5450,N,12241.0036,W,1,06,1.5,70.2,M,-24.5,M,,0000*55

@,!,330,&,100832
$GPGGA,192211.000,3827.5449,N,12241.0038,W,1,06,1.5,69.3,M,-24.5,M,,0000*5B

@,!,330,&,100829
$GPGGA,192212.000,3827.5448,N,12241.0040,W,1,06,1.5,68.5,M,-24.5,M,,0000*51

@,!,330,&,100836
$GPGGA,192213.000,3827.5447,N,12241.0041,W,1,06,1.5,67.7,M,-24.5,M,,0000*53

@,!,330,&,100836
$GPGGA,192214.000,3827.5447,N,12241.0042,W,1,06,1.5,67.3,M,-24.5,M,,0000*53

@,!,330,&,100826
$GPGGA,192215.000,3827.5447,N,12241.0042,W,1,06,1.5,67.2,M,-24.5,M,,0000*53

@,!,330,&,100823
$GPGGA,192216.000,3827.5447,N,12241.0042,W,1,06,1.5,66.9,M,-24.5,M,,0000*5A

@,!,330,&,100820
$GPGGA,192217.000,3827.5447,N,12241.0043,W,1,06,1.5,66.6,M,-24.5,M,,0000*55

@,!,330,&,100833
$GPGGA,192218.000,3827.5447,N,12241.0043,W,1,06,1.5,66.5,M,-24.5,M,,0000*59

@,!,330,&,100836
$GPGGA,192219.000,3827.5447,N,12241.0044,W,1,06,1.5,66.1,M,-24.5,M,,0000*5B

@,!,330,&,100830
$GPGGA,192220.000,3827.5446,N,12241.0045,W,1,06,1.5,65.6,M,-24.5,M,,0000*55

@,!,330,&,100836
$GPGGA,192221.000,3827.5446,N,12241.0045,W,1,06,1.5,65.6,M,-24.5,M,,0000*54

@,!,330,&,100836
$GPGGA,192222.000,3827.5446,N,12241.0044,W,1,06,1.5,65.8,M,-24.5,M,,0000*58

@,!,330,&,100839
$GPGGA,192223.000,3827.5447,N,12241.0043,W,1,06,1.5,66.3,M,-24.5,M,,0000*57

@,!,330,&,100827
$GPGGA,192224.000,3827.5448,N,12241.0042,W,1,06,1.5,66.5,M,-24.5,M,,0000*58

@,!,330,&,100830
$GPGGA,192225.000,3827.5448,N,12241.0040,W,1,06,1.5,66.9,M,-24.5,M,,0000*57

@,!,330,&,100830
$GPGGA,192226.000,3827.5449,N,12241.0039,W,1,06,1.5,67.5,M,-24.5,M,,0000*56

@,!,330,&,100830
$GPGGA,192227.000,3827.5450,N,12241.0037,W,1,06,1.5,68.2,M,-24.5,M,,0000*59

@,!,330,&,100827
$GPGGA,192228.000,3827.5451,N,12241.0035,W,1,06,1.5,68.8,M,-24.5,M,,0000*5F

@,!,331,&,100830
$GPGGA,192229.000,3827.5451,N,12241.0033,W,1,06,1.5,69.5,M,-24.5,M,,0000*54

@,!,331,&,100827
$GPGGA,192230.000,3827.5452,N,12241.0032,W,1,06,1.5,70.1,M,-24.5,M,,0000*52

@,!,331,&,100833
$GPGGA,192231.000,3827.5452,N,12241.0032,W,1,06,1.5,70.2,M,-24.5,M,,0000*50

@,!,331,&,100836
$GPGGA,192232.000,3827.5451,N,12241.0033,W,1,06,1.5,70.0,M,-24.5,M,,0000*53

@,!,331,&,100824
$GPGGA,192233.000,3827.5450,N,12241.0033,W,1,06,1.5,69.9,M,-24.5,M,,0000*52

@,!,331,&,100836
$GPGGA,192234.000,3827.5450,N,12241.0034,W,1,06,1.5,69.7,M,-24.5,M,,0000*5C

@,!,330,&,100821
$GPGGA,192235.000,3827.5449,N,12241.0035,W,1,06,1.5,69.5,M,-24.5,M,,0000*56

@,!,331,&,100824
$GPGGA,192236.000,3827.5449,N,12241.0035,W,1,06,1.5,69.1,M,-24.5,M,,0000*51

@,!,330,&,100830
$GPGGA,192237.000,3827.5449,N,12241.0036,W,1,06,1.5,69.0,M,-24.5,M,,0000*52

@,!,331,&,100833
$GPGGA,192238.000,3827.5449,N,12241.0035,W,1,06,1.5,68.9,M,-24.5,M,,0000*56

@,!,331,&,100827
$GPGGA,192239.000,3827.5449,N,12241.0035,W,1,06,1.5,68.9,M,-24.5,M,,0000*57

@,!,331,&,100833
$GPGGA,192240.000,3827.5449,N,12241.0035,W,1,06,1.5,68.7,M,-24.5,M,,0000*57

@,!,331,&,100839
$GPGGA,192241.000,3827.5449,N,12241.0035,W,1,06,1.5,68.7,M,-24.5,M,,0000*56

@,!,330,&,100827
$GPGGA,192242.000,3827.5449,N,12241.0035,W,1,06,1.5,68.8,M,-24.5,M,,0000*5A

@,!,330,&,100833
$GPGGA,192243.000,3827.5449,N,12241.0035,W,1,06,1.5,69.0,M,-24.5,M,,0000*52

@,!,330,&,100833
$GPGGA,192244.000,3827.5450,N,12241.0034,W,1,05,1.7,69.2,M,-24.5,M,,0000*5F

@,!,330,&,100833
$GPGGA,192245.000,3827.5450,N,12241.0034,W,1,05,1.7,69.7,M,-24.5,M,,0000*5B

@,!,330,&,100830
$GPGGA,192246.000,3827.5451,N,12241.0033,W,1,05,1.7,70.1,M,-24.5,M,,0000*50

@,!,331,&,100833
$GPGGA,192247.000,3827.5454,N,12241.0031,W,1,06,1.5,70.7,M,-24.5,M,,0000*51

@,!,330,&,100827
$GPGGA,192248.000,3827.5454,N,12241.0030,W,1,05,1.7,71.3,M,-24.5,M,,0000*5B

@,!,330,&,100824
$GPGGA,192249.000,3827.5454,N,12241.0030,W,1,06,1.5,71.7,M,-24.5,M,,0000*5F

@,!,330,&,100830
$GPGGA,192250.000,3827.5454,N,12241.0030,W,1,06,1.5,71.8,M,-24.5,M,,0000*58

@,!,330,&,100833
$GPGGA,192251.000,3827.5453,N,12241.0030,W,1,06,1.5,72.1,M,-24.5,M,,0000*54

@,!,330,&,100836
$GPGGA,192252.000,3827.5454,N,12241.0029,W,1,06,1.5,72.6,M,-24.5,M,,0000*5F

@,!,330,&,100833
$GPGGA,192253.000,3827.5454,N,12241.0028,W,1,05,1.7,73.4,M,-24.5,M,,0000*5D

@,!,330,&,100836
$GPGGA,192254.000,3827.5455,N,12241.0027,W,1,05,1.7,73.9,M,-24.5,M,,0000*59

@,!,330,&,100830
$GPGGA,192255.000,3827.5455,N,12241.0027,W,1,06,1.5,74.1,M,-24.5,M,,0000*56

@,!,330,&,100827
$GPGGA,192256.000,3827.5454,N,12241.0028,W,1,06,1.5,74.1,M,-24.5,M,,0000*5B

@,!,330,&,100836
$GPGGA,192257.000,3827.5454,N,12241.0028,W,1,06,1.5,74.4,M,-24.5,M,,0000*5F

@,!,330,&,100827
$GPGGA,192258.000,3827.5454,N,12241.0027,W,1,06,1.5,74.7,M,-24.5,M,,0000*5C

@,!,330,&,100827
$GPGGA,192259.000,3827.5453,N,12241.0028,W,1,06,1.5,74.7,M,-24.5,M,,0000*55

@,!,330,&,100821
$GPGGA,192300.000,3827.5452,N,12241.0029,W,1,06,1.5,74.5,M,-24.5,M,,0000*5A

@,!,330,&,100836
$GPGGA,192301.000,3827.5453,N,12241.0028,W,1,06,1.5,74.9,M,-24.5,M,,0000*57

@,!,330,&,100830
$GPGGA,192302.000,3827.5454,N,12241.0027,W,1,06,1.5,75.4,M,-24.5,M,,0000*50

@,!,330,&,100826
$GPGGA,192303.000,3827.5454,N,12241.0027,W,1,06,1.5,75.7,M,-24.5,M,,0000*52

@,!,330,&,100823
$GPGGA,192304.000,3827.5455,N,12241.0026,W,1,06,1.5,75.9,M,-24.5,M,,0000*5B

@,!,329,&,100829
$GPGGA,192305.000,3827.5455,N,12241.0026,W,1,06,1.5,76.3,M,-24.5,M,,0000*53

@,!,329,&,100835
$GPGGA,192306.000,3827.5455,N,12241.0026,W,1,06,1.5,76.4,M,-24.5,M,,0000*57

@,!,329,&,100823
$GPGGA,192307.000,3827.5454,N,12241.0026,W,1,06,1.5,76.6,M,-24.5,M,,0000*55

@,!,329,&,100832
$GPGGA,192308.000,3827.5453,N,12241.0027,W,1,06,1.5,76.3,M,-24.5,M,,0000*59

@,!,329,&,100826
$GPGGA,192309.000,3827.5452,N,12241.0028,W,1,05,2.0,76.3,M,-24.5,M,,0000*53

@,!,329,&,100820
$GPGGA,192310.000,3827.5451,N,12241.0028,W,1,05,2.0,76.2,M,-24.5,M,,0000*59

@,!,329,&,100835
$GPGGA,192311.000,3827.5450,N,12241.0029,W,1,05,2.0,76.1,M,-24.5,M,,0000*5B

@,!,328,&,100832
$GPGGA,192312.000,3827.5450,N,12241.0030,W,1,05,2.0,75.9,M,-24.5,M,,0000*5B

@,!,328,&,100832
$GPGGA,192313.000,3827.5449,N,12241.0030,W,1,05,2.0,75.8,M,-24.5,M,,0000*53

@,!,327,&,100826
$GPGGA,192314.000,3827.5449,N,12241.0031,W,1,05,2.0,75.7,M,-24.5,M,,0000*5A

@,!,327,&,100829
$GPGGA,192315.000,3827.5448,N,12241.0031,W,1,05,2.0,75.5,M,-24.5,M,,0000*58

@,!,326,&,100829
$GPGGA,192316.000,3827.5448,N,12241.0032,W,1,05,2.0,75.3,M,-24.5,M,,0000*5E

@,!,326,&,100832
$GPGGA,192317.000,3827.5448,N,12241.0033,W,1,05,2.0,75.0,M,-24.5,M,,0000*5D

@,!,325,&,100829
$GPGGA,192318.000,3827.5447,N,12241.0033,W,1,05,2.0,74.8,M,-24.5,M,,0000*54

@,!,325,&,100826
$GPGGA,192319.000,3827.5447,N,12241.0034,W,1,05,2.0,74.5,M,-24.5,M,,0000*5F

@,!,325,&,100829
$GPGGA,192320.000,3827.5447,N,12241.0035,W,1,05,2.0,74.1,M,-24.5,M,,0000*50

@,!,325,&,100826
$GPGGA,192321.000,3827.5446,N,12241.0036,W,1,05,2.0,73.8,M,-24.5,M,,0000*5D

@,!,324,&,100829
$GPGGA,192322.000,3827.5447,N,12241.0035,W,1,04,2.3,74.0,M,-24.5,M,,0000*51

@,!,324,&,100832
$GPGGA,192323.000,3827.5447,N,12241.0035,W,1,04,2.3,74.1,M,-24.5,M,,0000*51

@,!,324,&,100831
$GPGGA,192324.000,3827.5448,N,12241.0034,W,1,04,2.3,74.2,M,-24.5,M,,0000*5B

@,!,324,&,100819
$GPGGA,192325.000,3827.5446,N,12241.0036,W,1,05,2.0,73.8,M,-24.5,M,,0000*59

@,!,324,&,100831
$GPGGA,192326.000,3827.5443,N,12241.0039,W,1,05,2.0,72.7,M,-24.5,M,,0000*5E

@,!,324,&,100819
$GPGGA,192327.000,3827.5442,N,12241.0040,W,1,05,2.0,72.1,M,-24.5,M,,0000*56

@,!,324,&,100828
$GPGGA,192328.000,3827.5443,N,12241.0040,W,1,05,2.0,72.1,M,-24.5,M,,0000*58

@,!,324,&,100825
$GPGGA,192329.000,3827.5442,N,12241.0041,W,1,05,2.0,71.4,M,-24.5,M,,0000*5F

@,!,324,&,100828
$GPGGA,192330.000,3827.5443,N,12241.0041,W,1,04,2.3,71.5,M,-24.5,M,,0000*55

@,!,324,&,100834
$GPGGA,192331.000,3827.5443,N,12241.0040,W,1,04,2.3,71.7,M,-24.5,M,,0000*57

@,!,324,&,100835
$GPGGA,192332.000,3827.5444,N,12241.0040,W,1,04,2.3,71.8,M,-24.5,M,,0000*5C

@,!,324,&,100825
$GPGGA,192333.000,3827.5446,N,12241.0039,W,1,06,1.5,71.5,M,-24.5,M,,0000*5B

@,!,324,&,100828
$GPGGA,192334.000,3827.5448,N,12241.0038,W,1,06,1.5,71.5,M,-24.5,M,,0000*53

@,!,324,&,100838
$GPGGA,192335.000,3827.5449,N,12241.0038,W,1,06,1.5,71.6,M,-24.5,M,,0000*50

@,!,324,&,100819
$GPGGA,192336.000,3827.5450,N,12241.0037,W,1,05,1.7,71.5,M,-24.5,M,,0000*56

@,!,324,&,100832
$GPGGA,192337.000,3827.5451,N,12241.0036,W,1,05,1.7,71.6,M,-24.5,M,,0000*54

@,!,324,&,100838
$GPGGA,192338.000,3827.5452,N,12241.0035,W,1,05,1.7,71.9,M,-24.5,M,,0000*54

@,!,324,&,100825
$GPGGA,192339.000,3827.5453,N,12241.0034,W,1,05,1.7,72.2,M,-24.5,M,,0000*5D

@,!,324,&,100831
$GPGGA,192340.000,3827.5453,N,12241.0034,W,1,05,1.7,71.9,M,-24.5,M,,0000*5B

@,!,324,&,100834
$GPGGA,192341.000,3827.5453,N,12241.0034,W,1,05,1.7,71.7,M,-24.5,M,,0000*54

@,!,324,&,100828
$GPGGA,192342.000,3827.5453,N,12241.0035,W,1,05,1.7,71.4,M,-24.5,M,,0000*55

@,!,323,&,100831
$GPGGA,192343.000,3827.5453,N,12241.0035,W,1,05,1.7,71.6,M,-24.5,M,,0000*56

@,!,323,&,100837
$GPGGA,192344.000,3827.5452,N,12241.0035,W,1,05,1.7,71.5,M,-24.5,M,,0000*53

@,!,323,&,100825
$GPGGA,192345.000,3827.5452,N,12241.0035,W,1,05,1.7,71.6,M,-24.5,M,,0000*51

@,!,322,&,100834
$GPGGA,192346.000,3827.5453,N,12241.0034,W,1,05,1.7,72.0,M,-24.5,M,,0000*57

@,!,322,&,100825
$GPGGA,192347.000,3827.5453,N,12241.0034,W,1,06,1.5,71.9,M,-24.5,M,,0000*5D

@,!,322,&,100825
$GPGGA,192348.000,3827.5452,N,12241.0035,W,1,06,1.5,71.5,M,-24.5,M,,0000*5E

@,!,321,&,100831
$GPGGA,192349.000,3827.5451,N,12241.0036,W,1,06,1.5,71.2,M,-24.5,M,,0000*58

@,!,320,&,100837
$GPGGA,192350.000,3827.5451,N,12241.0036,W,1,06,1.5,71.1,M,-24.5,M,,0000*53

@,!,320,&,100825
$GPGGA,192351.000,3827.5453,N,12241.0033,W,1,06,1.5,72.1,M,-24.5,M,,0000*56

@,!,320,&,100828
$GPGGA,192352.000,3827.5453,N,12241.0033,W,1,06,1.5,72.1,M,-24.5,M,,0000*55

@,!,319,&,100831
$GPGGA,192353.000,3827.5453,N,12241.0033,W,1,06,1.5,72.0,M,-24.5,M,,0000*55

@,!,319,&,100825
$GPGGA,192354.000,3827.5450,N,12241.0036,W,1,06,1.5,71.1,M,-24.5,M,,0000*56

@,!,319,&,100831
$GPGGA,192355.000,3827.5448,N,12241.0036,W,1,06,1.5,71.4,M,-24.5,M,,0000*5B

@,!,319,&,100827
$GPGGA,192356.000,3827.5448,N,12241.0035,W,1,06,1.5,71.8,M,-24.5,M,,0000*57

@,!,319,&,100831
$GPGGA,192357.000,3827.5448,N,12241.0035,W,1,06,1.5,71.9,M,-24.5,M,,0000*57

@,!,319,&,100831
$GPGGA,192358.000,3827.5447,N,12241.0036,W,1,05,1.9,72.2,M,-24.5,M,,0000*53

@,!,319,&,100818
$GPGGA,192359.000,3827.5446,N,12241.0037,W,1,06,1.5,72.6,M,-24.5,M,,0000*59

@,!,319,&,100834
$GPGGA,192400.000,3827.5445,N,12241.0039,W,1,05,1.9,72.6,M,-24.5,M,,0000*50

@,!,319,&,100824
$GPGGA,192401.000,3827.5445,N,12241.0039,W,1,05,1.9,73.1,M,-24.5,M,,0000*57

@,!,319,&,100824
$GPGGA,192402.000,3827.5444,N,12241.0041,W,1,05,1.9,72.4,M,-24.5,M,,0000*5E

@,!,319,&,100825
$GPGGA,192403.000,3827.5443,N,12241.0043,W,1,05,1.9,71.9,M,-24.5,M,,0000*54

@,!,319,&,100822
$GPGGA,192404.000,3827.5443,N,12241.0043,W,1,05,1.9,71.5,M,-24.5,M,,0000*5F

@,!,319,&,100825
$GPGGA,192405.000,3827.5443,N,12241.0043,W,1,05,1.9,71.4,M,-24.5,M,,0000*5F

@,!,319,&,100825
$GPGGA,192406.000,3827.5443,N,12241.0043,W,1,05,1.9,71.4,M,-24.5,M,,0000*5C

@,!,319,&,100822
$GPGGA,192407.000,3827.5444,N,12241.0042,W,1,05,1.9,72.0,M,-24.5,M,,0000*5C

@,!,319,&,100825
$GPGGA,192408.000,3827.5443,N,12241.0042,W,1,05,1.9,72.1,M,-24.5,M,,0000*55

@,!,319,&,100828
$GPGGA,192409.000,3827.5443,N,12241.0043,W,1,05,1.9,72.0,M,-24.5,M,,0000*54

@,!,319,&,100831
$GPGGA,192410.000,3827.5443,N,12241.0044,W,1,05,1.9,71.7,M,-24.5,M,,0000*5F

@,!,320,&,100834
$GPGGA,192411.000,3827.5442,N,12241.0045,W,1,05,1.9,70.9,M,-24.5,M,,0000*51

@,!,320,&,100828
$GPGGA,192412.000,3827.5442,N,12241.0045,W,1,05,1.9,71.4,M,-24.5,M,,0000*5E

@,!,320,&,100845
$GPGGA,192413.000,3827.5442,N,12241.0044,W,1,05,1.9,71.8,M,-24.5,M,,0000*52

@,!,320,&,100828
$GPGGA,192414.000,3827.5443,N,12241.0043,W,1,06,1.5,72.3,M,-24.5,M,,0000*54

@,!,320,&,100828
$GPGGA,192415.000,3827.5443,N,12241.0042,W,1,06,1.5,73.1,M,-24.5,M,,0000*57

@,!,320,&,100825
$GPGGA,192416.000,3827.5445,N,12241.0039,W,1,06,1.5,71.7,M,-24.5,M,,0000*5A

@,!,320,&,100828
$GPGGA,192417.000,3827.5446,N,12241.0038,W,1,06,1.5,70.8,M,-24.5,M,,0000*57

@,!,320,&,100825
$GPGGA,192418.000,3827.5446,N,12241.0038,W,1,06,1.5,70.1,M,-24.5,M,,0000*51

@,!,321,&,100822
$GPGGA,192419.000,3827.5447,N,12241.0038,W,1,06,1.5,69.1,M,-24.5,M,,0000*59

@,!,321,&,100825
$GPGGA,192420.000,3827.5447,N,12241.0038,W,1,06,1.5,68.3,M,-24.5,M,,0000*50

@,!,321,&,100831
$GPGGA,192421.000,3827.5448,N,12241.0038,W,1,06,1.5,67.7,M,-24.5,M,,0000*55

@,!,321,&,100831
$GPGGA,192422.000,3827.5449,N,12241.0037,W,1,06,1.5,66.4,M,-24.5,M,,0000*5A

@,!,321,&,100837
$GPGGA,192423.000,3827.5447,N,12241.0037,W,1,06,1.5,67.5,M,-24.5,M,,0000*55

@,!,321,&,100845
$GPGGA,192424.000,3827.5446,N,12241.0038,W,1,06,1.5,69.4,M,-24.5,M,,0000*53

@,!,321,&,100825
$GPGGA,192425.000,3827.5446,N,12241.0038,W,1,06,1.5,71.1,M,-24.5,M,,0000*5E

@,!,321,&,100834
$GPGGA,192426.000,3827.5445,N,12241.0037,W,1,06,1.5,72.6,M,-24.5,M,,0000*55

@,!,321,&,100825
$GPGGA,192427.000,3827.5445,N,12241.0038,W,1,06,1.5,72.8,M,-24.5,M,,0000*55

@,!,321,&,100819
$GPGGA,192428.000,3827.5444,N,12241.0038,W,1,06,1.5,73.2,M,-24.5,M,,0000*50

@,!,322,&,100825
$GPGGA,192429.000,3827.5444,N,12241.0039,W,1,06,1.5,73.0,M,-24.5,M,,0000*52

@,!,322,&,100822
$GPGGA,192430.000,3827.5443,N,12241.0039,W,1,06,1.5,73.1,M,-24.5,M,,0000*5C

@,!,322,&,100834
$GPGGA,192431.000,3827.5442,N,12241.0040,W,1,06,1.5,72.9,M,-24.5,M,,0000*5B

@,!,322,&,100828
$GPGGA,192432.000,3827.5442,N,12241.0040,W,1,06,1.5,72.8,M,-24.5,M,,0000*59

@,!,322,&,100843
$GPGGA,192433.000,3827.5442,N,12241.0040,W,1,06,1.5,72.9,M,-24.5,M,,0000*59

@,!,322,&,100828
$GPGGA,192434.000,3827.5442,N,12241.0040,W,1,06,1.5,72.8,M,-24.5,M,,0000*5F

@,!,322,&,100831
$GPGGA,192435.000,3827.5442,N,12241.0040,W,1,06,1.5,73.0,M,-24.5,M,,0000*57

@,!,322,&,100837
$GPGGA,192436.000,3827.5442,N,12241.0040,W,1,06,1.5,73.2,M,-24.5,M,,0000*56

@,!,322,&,100828
$GPGGA,192437.000,3827.5441,N,12241.0040,W,1,06,1.5,73.5,M,-24.5,M,,0000*53

@,!,322,&,100825
$GPGGA,192438.000,3827.5441,N,12241.0039,W,1,06,1.5,74.0,M,-24.5,M,,0000*50

@,!,322,&,100822
$GPGGA,192439.000,3827.5441,N,12241.0039,W,1,06,1.5,74.0,M,-24.5,M,,0000*51

@,!,322,&,100825
$GPGGA,192440.000,3827.5441,N,12241.0039,W,1,06,1.5,74.2,M,-24.5,M,,0000*5D

@,!,322,&,100828
$GPGGA,192441.000,3827.5441,N,12241.0038,W,1,06,1.5,74.7,M,-24.5,M,,0000*58

@,!,322,&,100828
$GPGGA,192442.000,3827.5442,N,12241.0038,W,1,06,1.5,74.4,M,-24.5,M,,0000*5B

@,!,321,&,100831
$GPGGA,192443.000,3827.5441,N,12241.0038,W,1,06,1.5,74.3,M,-24.5,M,,0000*5E

@,!,321,&,100831
$GPGGA,192444.000,3827.5441,N,12241.0039,W,1,06,1.5,74.0,M,-24.5,M,,0000*5B

@,!,321,&,100825
$GPGGA,192445.000,3827.5440,N,12241.0041,W,1,06,1.5,73.4,M,-24.5,M,,0000*57

@,!,321,&,100825
$GPGGA,192446.000,3827.5439,N,12241.0041,W,1,05,2.1,73.4,M,-24.5,M,,0000*5E

@,!,321,&,100834
$GPGGA,192447.000,3827.5438,N,12241.0042,W,1,05,2.1,73.5,M,-24.5,M,,0000*5C

@,!,321,&,100828
$GPGGA,192448.000,3827.5438,N,12241.0042,W,1,05,2.1,73.6,M,-24.5,M,,0000*50

@,!,320,&,100848
$GPGGA,192449.000,3827.5438,N,12241.0042,W,1,05,2.1,73.6,M,-24.5,M,,0000*51

@,!,320,&,100831
$GPGGA,192450.000,3827.5438,N,12241.0042,W,1,05,2.1,73.6,M,-24.5,M,,0000*59

@,!,320,&,100825
$GPGGA,192451.000,3827.5437,N,12241.0042,W,1,05,2.1,73.6,M,-24.5,M,,0000*57

@,!,320,&,100822
$GPGGA,192452.000,3827.5437,N,12241.0042,W,1,05,2.1,73.6,M,-24.5,M,,0000*54

@,!,319,&,100834
$GPGGA,192453.000,3827.5437,N,12241.0042,W,1,05,2.1,73.5,M,-24.5,M,,0000*56

@,!,319,&,100831
$GPGGA,192454.000,3827.5437,N,12241.0043,W,1,05,2.1,73.5,M,-24.5,M,,0000*50

@,!,318,&,100824
$GPGGA,192455.000,3827.5436,N,12241.0043,W,1,05,2.1,73.5,M,-24.5,M,,0000*50

@,!,318,&,100818
$GPGGA,192456.000,3827.5436,N,12241.0043,W,1,05,2.1,73.4,M,-24.5,M,,0000*52

@,!,318,&,100833
$GPGGA,192457.000,3827.5436,N,12241.0043,W,1,05,2.1,73.5,M,-24.5,M,,0000*52

@,!,318,&,100833
$GPGGA,192458.000,3827.5436,N,12241.0043,W,1,05,2.1,73.5,M,-24.5,M,,0000*5D

@,!,317,&,100827
$GPGGA,192459.000,3827.5435,N,12241.0043,W,1,05,2.1,73.5,M,-24.5,M,,0000*5F

@,!,317,&,100821
$GPGGA,192500.000,3827.5435,N,12241.0043,W,1,05,2.1,73.5,M,-24.5,M,,0000*52

@,!,317,&,100827
$GPGGA,192501.000,3827.5435,N,12241.0043,W,1,05,2.1,73.6,M,-24.5,M,,0000*50

@,!,316,&,100827
$GPGGA,192502.000,3827.5435,N,12241.0044,W,1,05,2.1,73.6,M,-24.5,M,,0000*54

@,!,316,&,100815
$GPGGA,192503.000,3827.5434,N,12241.0044,W,1,05,2.1,73.6,M,-24.5,M,,0000*54

@,!,316,&,100821
$GPGGA,192504.000,3827.5434,N,12241.0044,W,1,05,2.1,73.6,M,-24.5,M,,0000*53

@,!,316,&,100830
$GPGGA,192505.000,3827.5434,N,12241.0044,W,1,05,2.1,73.6,M,-24.5,M,,0000*52

@,!,316,&,100830
$GPGGA,192506.000,3827.5434,N,12241.0044,W,1,05,2.1,73.6,M,-24.5,M,,0000*51

@,!,316,&,100833
$GPGGA,192507.000,3827.5433,N,12241.0044,W,1,05,2.1,73.6,M,-24.5,M,,0000*57

@,!,316,&,100827
$GPGGA,192508.000,3827.5433,N,12241.0044,W,1,05,2.1,73.6,M,-24.5,M,,0000*58

@,!,315,&,100824
$GPGGA,192509.000,3827.5433,N,12241.0045,W,1,05,2.1,73.6,M,-24.5,M,,0000*58

@,!,315,&,100821
$GPGGA,192510.000,3827.5433,N,12241.0045,W,1,05,2.1,73.5,M,-24.5,M,,0000*53

@,!,315,&,100836
$GPGGA,192511.000,3827.5433,N,12241.0045,W,1,05,2.1,73.5,M,-24.5,M,,0000*52

@,!,314,&,100833
$GPGGA,192512.000,3827.5432,N,12241.0045,W,1,05,2.1,73.3,M,-24.5,M,,0000*56

@,!,313,&,100824
$GPGGA,192513.000,3827.5432,N,12241.0046,W,1,05,2.1,73.2,M,-24.5,M,,0000*55

@,!,313,&,100823
$GPGGA,192514.000,3827.5432,N,12241.0046,W,1,05,2.1,73.1,M,-24.5,M,,0000*51

@,!,312,&,100826
$GPGGA,192515.000,3827.5432,N,12241.0046,W,1,05,2.1,73.1,M,-24.5,M,,0000*50

@,!,312,&,100820
$GPGGA,192516.000,3827.5432,N,12241.0046,W,1,05,2.1,73.1,M,-24.5,M,,0000*53

@,!,311,&,100820
$GPGGA,192517.000,3827.5432,N,12241.0046,W,1,05,2.1,73.1,M,-24.5,M,,0000*52

@,!,311,&,100835
$GPGGA,192518.000,3827.5432,N,12241.0046,W,1,05,2.1,73.0,M,-24.5,M,,0000*5C

@,!,310,&,100823
$GPGGA,192519.000,3827.5432,N,12241.0046,W,1,05,2.1,72.9,M,-24.5,M,,0000*55

@,!,310,&,100823
$GPGGA,192520.000,3827.5432,N,12241.0047,W,1,05,2.1,72.7,M,-24.5,M,,0000*50

@,!,310,&,100829
$GPGGA,192521.000,3827.5432,N,12241.0047,W,1,05,2.1,72.7,M,-24.5,M,,0000*51

@,!,309,&,100829
$GPGGA,192522.000,3827.5432,N,12241.0047,W,1,05,2.1,72.6,M,-24.5,M,,0000*53

@,!,309,&,100829
$GPGGA,192523.000,3827.5432,N,12241.0047,W,1,05,2.1,72.6,M,-24.5,M,,0000*52

@,!,309,&,100820
$GPGGA,192524.000,3827.5432,N,12241.0047,W,1,05,2.1,72.6,M,-24.5,M,,0000*55

@,!,309,&,100826
$GPGGA,192525.000,3827.5432,N,12241.0047,W,1,05,2.1,72.5,M,-24.5,M,,0000*57

@,!,309,&,100823
$GPGGA,192526.000,3827.5432,N,12241.0047,W,1,05,2.1,72.5,M,-24.5,M,,0000*54

@,!,309,&,100826
$GPGGA,192527.000,3827.5432,N,12241.0047,W,1,05,2.1,72.4,M,-24.5,M,,0000*54

@,!,309,&,100829
$GPGGA,192528.000,3827.5431,N,12241.0048,W,1,05,2.1,71.9,M,-24.5,M,,0000*59

@,!,309,&,100820
$GPGGA,192529.000,3827.5431,N,12241.0048,W,1,05,2.1,72.1,M,-24.5,M,,0000*53

@,!,309,&,100826
$GPGGA,192530.000,3827.5432,N,12241.0047,W,1,05,2.1,72.3,M,-24.5,M,,0000*55

@,!,309,&,100817
$GPGGA,192531.000,3827.5432,N,12241.0047,W,1,05,2.1,72.4,M,-24.5,M,,0000*53

@,!,309,&,100826
$GPGGA,192532.000,3827.5433,N,12241.0046,W,1,05,2.1,72.8,M,-24.5,M,,0000*5C

@,!,309,&,100826
$GPGGA,192533.000,3827.5433,N,12241.0045,W,1,05,2.1,73.0,M,-24.5,M,,0000*57

@,!,309,&,100817
$GPGGA,192534.000,3827.5432,N,12241.0048,W,1,05,2.1,72.0,M,-24.5,M,,0000*5D

@,!,309,&,100829
$GPGGA,192535.000,3827.5433,N,12241.0047,W,1,05,2.1,72.4,M,-24.5,M,,0000*56

@,!,309,&,100820
$GPGGA,192536.000,3827.5434,N,12241.0046,W,1,05,2.1,72.7,M,-24.5,M,,0000*50

@,!,309,&,100814
$GPGGA,192537.000,3827.5435,N,12241.0044,W,1,05,2.1,73.6,M,-24.5,M,,0000*52

@,!,309,&,100823
$GPGGA,192538.000,3827.5434,N,12241.0045,W,1,05,2.1,73.1,M,-24.5,M,,0000*5A

@,!,309,&,100826
$GPGGA,192539.000,3827.5435,N,12241.0043,W,1,05,2.1,74.0,M,-24.5,M,,0000*5A

@,!,309,&,100826
$GPGGA,192540.000,3827.5434,N,12241.0043,W,1,05,2.1,73.8,M,-24.5,M,,0000*5A

@,!,309,&,100832
$GPGGA,192541.000,3827.5434,N,12241.0043,W,1,05,2.1,74.0,M,-24.5,M,,0000*54

@,!,309,&,100835
$GPGGA,192542.000,3827.5435,N,12241.0041,W,1,05,2.1,74.8,M,-24.5,M,,0000*5C

@,!,309,&,100817
$GPGGA,192543.000,3827.5436,N,12241.0040,W,1,05,2.1,75.1,M,-24.5,M,,0000*57

@,!,309,&,100817
$GPGGA,192544.000,3827.5436,N,12241.0041,W,1,05,2.1,74.8,M,-24.5,M,,0000*59

@,!,310,&,100823
$GPGGA,192545.000,3827.5435,N,12241.0042,W,1,05,2.1,74.1,M,-24.5,M,,0000*51

@,!,310,&,100832
$GPGGA,192546.000,3827.5435,N,12241.0042,W,1,05,2.1,73.9,M,-24.5,M,,0000*5D

@,!,310,&,100820
$GPGGA,192547.000,3827.5435,N,12241.0042,W,1,05,2.1,74.0,M,-24.5,M,,0000*52

@,!,310,&,100826
$GPGGA,192548.000,3827.5433,N,12241.0046,W,1,05,2.1,72.4,M,-24.5,M,,0000*5D

@,!,310,&,100814
$GPGGA,192549.000,3827.5430,N,12241.0050,W,1,05,2.1,70.4,M,-24.5,M,,0000*5A

@,!,310,&,100835
$GPGGA,192550.000,3827.5429,N,12241.0051,W,1,05,2.1,70.1,M,-24.5,M,,0000*5E

@,!,310,&,100826
$GPGGA,192551.000,3827.5427,N,12241.0056,W,1,05,2.1,67.8,M,-24.5,M,,0000*59

@,!,311,&,100829
$GPGGA,192552.000,3827.5429,N,12241.0053,W,1,05,2.1,68.7,M,-24.5,M,,0000*51

@,!,311,&,100829
$GPGGA,192553.000,3827.5434,N,12241.0047,W,1,05,2.1,71.3,M,-24.5,M,,0000*55

@,!,311,&,100832
$GPGGA,192554.000,3827.5434,N,12241.0046,W,1,05,2.1,71.4,M,-24.5,M,,0000*54

@,!,311,&,100814
$GPGGA,192555.000,3827.5435,N,12241.0044,W,1,05,2.1,71.8,M,-24.5,M,,0000*5A

@,!,311,&,100829
$GPGGA,192556.000,3827.5435,N,12241.0045,W,1,05,2.1,71.3,M,-24.5,M,,0000*53

@,!,310,&,100820
$GPGGA,192557.000,3827.5431,N,12241.0051,W,1,04,1.9,69.9,M,-24.5,M,,0000*5A

@,!,310,&,100832
$GPGGA,192558.000,3827.5427,N,12241.0055,W,1,04,1.9,69.8,M,-24.5,M,,0000*57

@,!,309,&,100826
$GPGGA,192559.000,3827.5430,N,12241.0050,W,1,04,1.9,70.7,M,-24.5,M,,0000*52

@,!,309,&,100829
$GPGGA,192600.000,3827.5433,N,12241.0048,W,1,05,2.1,71.3,M,-24.5,M,,0000*58

@,!,308,&,100832
$GPGGA,192601.000,3827.5434,N,12241.0047,W,1,05,2.1,72.0,M,-24.5,M,,0000*51

@,!,308,&,100829
$GPGGA,192602.000,3827.5432,N,12241.0049,W,1,05,2.1,72.7,M,-24.5,M,,0000*5D

@,!,308,&,100823
$GPGGA,192603.000,3827.5433,N,12241.0048,W,1,05,2.1,72.2,M,-24.5,M,,0000*59

@,!,308,&,100816
$GPGGA,192604.000,3827.5437,N,12241.0044,W,1,05,2.1,72.3,M,-24.5,M,,0000*57

@,!,308,&,100819
$GPGGA,192605.000,3827.5437,N,12241.0044,W,1,05,2.1,72.5,M,-24.5,M,,0000*50

@,!,308,&,100829
$GPGGA,192606.000,3827.5434,N,12241.0047,W,1,05,2.1,71.9,M,-24.5,M,,0000*5C

@,!,308,&,100831
$GPGGA,192607.000,3827.5434,N,12241.0048,W,1,05,2.1,71.4,M,-24.5,M,,0000*5F

@,!,308,&,100828
$GPGGA,192608.000,3827.5436,N,12241.0045,W,1,05,2.1,73.0,M,-24.5,M,,0000*59

@,!,307,&,100828
$GPGGA,192609.000,3827.5441,N,12241.0039,W,1,05,2.1,74.2,M,-24.5,M,,0000*56

@,!,308,&,100822
$GPGGA,192610.000,3827.5445,N,12241.0035,W,1,05,2.1,76.1,M,-24.5,M,,0000*57

@,!,307,&,100825
$GPGGA,192611.000,3827.5448,N,12241.0030,W,1,05,2.1,78.0,M,-24.5,M,,0000*51

@,!,307,&,100819
$GPGGA,192612.000,3827.5449,N,12241.0028,W,1,05,2.1,78.9,M,-24.5,M,,0000*53

@,!,307,&,100825
$GPGGA,192613.000,3827.5448,N,12241.0030,W,1,05,2.1,78.3,M,-24.5,M,,0000*50

@,!,307,&,100828
$GPGGA,192614.000,3827.5448,N,12241.0029,W,1,05,2.1,78.9,M,-24.5,M,,0000*55

@,!,307,&,100834
$GPGGA,192615.000,3827.5449,N,12241.0027,W,1,05,2.1,79.7,M,-24.5,M,,0000*54

@,!,307,&,100831
$GPGGA,192616.000,3827.5450,N,12241.0025,W,1,05,2.1,80.7,M,-24.5,M,,0000*5B

@,!,307,&,100822
$GPGGA,192617.000,3827.5452,N,12241.0023,W,1,05,2.1,82.0,M,-24.5,M,,0000*5B

@,!,307,&,100831
$GPGGA,192618.000,3827.5453,N,12241.0021,W,1,05,2.1,83.1,M,-24.5,M,,0000*57

@,!,307,&,100819
$GPGGA,192619.000,3827.5454,N,12241.0018,W,1,05,2.1,84.5,M,-24.5,M,,0000*58

@,!,307,&,100828
$GPGGA,192620.000,3827.5457,N,12241.0013,W,1,05,2.1,86.9,M,-24.5,M,,0000*54

@,!,307,&,100831
$GPGGA,192621.000,3827.5457,N,12241.0012,W,1,05,2.1,87.7,M,-24.5,M,,0000*5B

@,!,307,&,100828
$GPGGA,192622.000,3827.5459,N,12241.0010,W,1,05,2.1,88.8,M,-24.5,M,,0000*54

@,!,307,&,100828
$GPGGA,192623.000,3827.5460,N,12241.0008,W,1,05,2.1,89.4,M,-24.5,M,,0000*5B

@,!,307,&,100843
$GPGGA,192624.000,3827.5462,N,12241.0005,W,1,05,2.1,90.9,M,-24.5,M,,0000*56

@,!,307,&,100825
$GPGGA,192625.000,3827.5462,N,12241.0004,W,1,05,2.1,91.4,M,-24.5,M,,0000*5A

@,!,307,&,100819
$GPGGA,192626.000,3827.5461,N,12241.0005,W,1,05,2.1,91.2,M,-24.5,M,,0000*5D

@,!,307,&,100819
$GPGGA,192627.000,3827.5459,N,12241.0007,W,1,05,2.1,90.1,M,-24.5,M,,0000*57

@,!,307,&,100819
$GPGGA,192628.000,3827.5455,N,12241.0012,W,1,05,2.1,87.8,M,-24.5,M,,0000*5F

@,!,307,&,100822
$GPGGA,192629.000,3827.5452,N,12241.0016,W,1,05,2.1,86.3,M,-24.5,M,,0000*57

@,!,308,&,100834
$GPGGA,192630.000,3827.5451,N,12241.0017,W,1,05,2.1,85.7,M,-24.5,M,,0000*5A

@,!,308,&,100822
$GPGGA,192631.000,3827.5450,N,12241.0019,W,1,05,2.1,84.6,M,-24.5,M,,0000*54

@,!,308,&,100826
$GPGGA,192632.000,3827.5448,N,12241.0023,W,1,05,2.1,83.0,M,-24.5,M,,0000*56

@,!,308,&,100817
$GPGGA,192633.000,3827.5447,N,12241.0025,W,1,05,2.1,81.6,M,-24.5,M,,0000*5A

@,!,308,&,100826
$GPGGA,192634.000,3827.5445,N,12241.0029,W,1,05,2.1,80.5,M,-24.5,M,,0000*51

@,!,308,&,100826
$GPGGA,192635.000,3827.5445,N,12241.0026,W,1,05,2.1,80.8,M,-24.5,M,,0000*52

@,!,308,&,100823
$GPGGA,192636.000,3827.5445,N,12241.0026,W,1,05,2.1,80.0,M,-24.5,M,,0000*59

@,!,308,&,100820
$GPGGA,192637.000,3827.5448,N,12241.0024,W,1,05,2.1,80.6,M,-24.5,M,,0000*51

@,!,308,&,100820
$GPGGA,192638.000,3827.5445,N,12241.0029,W,1,05,2.1,78.3,M,-24.5,M,,0000*5C

@,!,308,&,100814
$GPGGA,192639.000,3827.5442,N,12241.0035,W,1,05,2.1,75.5,M,-24.5,M,,0000*5C

@,!,308,&,100814
$GPGGA,192640.000,3827.5436,N,12241.0045,W,1,04,4.7,71.1,M,-24.5,M,,0000*57

@,!,308,&,100826
$GPGGA,192641.000,3827.5435,N,12241.0049,W,1,04,4.7,69.0,M,-24.5,M,,0000*51

@,!,309,&,100826
$GPGGA,192642.000,3827.5434,N,12241.0054,W,1,04,4.7,66.6,M,-24.5,M,,0000*56

@,!,309,&,100823
$GPGGA,192643.000,3827.5432,N,12241.0061,W,1,05,2.1,63.5,M,-24.5,M,,0000*50

@,!,309,&,100823
$GPGGA,192644.000,3827.5430,N,12241.0067,W,1,05,2.1,60.5,M,-24.5,M,,0000*50

@,!,309,&,100817
$GPGGA,192645.000,3827.5430,N,12241.0068,W,1,05,2.1,59.9,M,-24.5,M,,0000*58

@,!,309,&,100814
$GPGGA,192646.000,3827.5424,N,12241.0071,W,1,05,2.1,58.9,M,-24.5,M,,0000*57

@,!,309,&,100829
