$GPGGA,175648.000,3827.5468,N,12241.0051,W,1,07,1.4,65.2,M,-24.5,M,,0000*5B

@,!,50,&,100000

$GPGGA,175649.000,3827.5470,N,12241.0055,W,1,07,1.4,66.1,M,-24.5,M,,0000*57

@,!,50,&,100000

$GPGGA,175650.000,3827.5471,N,12241.0058,W,1,07,1.4,66.8,M,-24.5,M,,0000*5A

@,!,50,&,100000

$GPGGA,175651.000,3827.5473,N,12241.0057,W,1,07,1.4,67.1,M,-24.5,M,,0000*5E

@,!,50,&,100000

$GPGGA,175652.000,3827.5469,N,12241.0056,W,1,07,1.4,66.4,M,-24.5,M,,0000*53

@,!,50,&,100000

$GPGGA,175653.000,3827.5464,N,12241.0057,W,1,07,1.4,65.6,M,-24.5,M,,0000*5F

@,!,50,&,100000

$GPGGA,175654.000,3827.5460,N,12241.0057,W,1,07,1.4,64.5,M,-24.5,M,,0000*5E

@,!,50,&,100000

$GPGGA,175655.000,3827.5459,N,12241.0057,W,1,07,1.4,64.3,M,-24.5,M,,0000*53

@,!,50,&,100000

$GPGGA,175656.000,3827.5454,N,12241.0057,W,1,07,1.4,63.6,M,-24.5,M,,0000*5F

@,!,50,&,100000

$GPGGA,175657.000,3827.5455,N,12241.0058,W,1,07,1.4,64.0,M,-24.5,M,,0000*51

@,!,50,&,100000

$GPGGA,175658.000,3827.5457,N,12241.0060,W,1,07,1.4,63.9,M,-24.5,M,,0000*59

@,!,50,&,100000

$GPGGA,175659.000,3827.5456,N,12241.0061,W,1,07,1.4,63.3,M,-24.5,M,,0000*52

@,!,50,&,100000

$GPGGA,175700.000,3827.5453,N,12241.0060,W,1,07,1.4,62.9,M,-24.5,M,,0000*50

@,!,50,&,100000

$GPGGA,175701.000,3827.5452,N,12241.0059,W,1,07,1.4,62.6,M,-24.5,M,,0000*55

@,!,50,&,100000

$GPGGA,175702.000,3827.5452,N,12241.0058,W,1,07,1.4,62.7,M,-24.5,M,,0000*56

@,!,50,&,100000

$GPGGA,175703.000,3827.5452,N,12241.0057,W,1,07,1.4,62.3,M,-24.5,M,,0000*5C

@,!,50,&,100000

$GPGGA,175704.000,3827.5450,N,12241.0056,W,1,07,1.4,61.9,M,-24.5,M,,0000*51

@,!,50,&,100000

$GPGGA,175705.000,3827.5446,N,12241.0055,W,1,07,1.4,61.4,M,-24.5,M,,0000*59

@,!,50,&,100000

$GPGGA,175706.000,3827.5444,N,12241.0055,W,1,07,1.4,61.2,M,-24.5,M,,0000*5E

@,!,50,&,100000

$GPGGA,175707.000,3827.5443,N,12241.0054,W,1,07,1.4,61.1,M,-24.5,M,,0000*5A

@,!,50,&,100000

$GPGGA,175708.000,3827.5439,N,12241.0053,W,1,07,1.4,60.2,M,-24.5,M,,0000*5D

@,!,50,&,100000

$GPGGA,175709.000,3827.5437,N,12241.0053,W,1,07,1.4,59.5,M,-24.5,M,,0000*5F

@,!,50,&,100000

$GPGGA,175710.000,3827.5436,N,12241.0052,W,1,07,1.4,59.5,M,-24.5,M,,0000*57

@,!,50,&,100000

$GPGGA,175711.000,3827.5438,N,12241.0051,W,1,07,1.4,59.9,M,-24.5,M,,0000*57

@,!,50,&,100000

$GPGGA,175712.000,3827.5443,N,12241.0049,W,1,07,1.4,61.1,M,-24.5,M,,0000*52

@,!,50,&,100000

$GPGGA,175713.000,3827.5444,N,12241.0050,W,1,07,1.4,61.1,M,-24.5,M,,0000*5C

@,!,50,&,100000

$GPGGA,175714.000,3827.5443,N,12241.0053,W,1,07,1.4,61.3,M,-24.5,M,,0000*5D

@,!,50,&,100000

$GPGGA,175715.000,3827.5446,N,12241.0053,W,1,07,1.4,62.4,M,-24.5,M,,0000*5D

@,!,50,&,100000

$GPGGA,175716.000,3827.5447,N,12241.0055,W,1,07,1.4,62.7,M,-24.5,M,,0000*5A

@,!,50,&,100000

$GPGGA,175717.000,3827.5448,N,12241.0057,W,1,07,1.4,62.9,M,-24.5,M,,0000*58

@,!,50,&,100000

$GPGGA,175718.000,3827.5452,N,12241.0057,W,1,07,1.4,63.7,M,-24.5,M,,0000*53

@,!,50,&,100000

$GPGGA,175719.000,3827.5455,N,12241.0060,W,1,07,1.4,64.1,M,-24.5,M,,0000*50

@,!,50,&,100000

$GPGGA,175720.000,3827.5457,N,12241.0063,W,1,07,1.4,64.9,M,-24.5,M,,0000*53

@,!,50,&,100000

$GPGGA,175721.000,3827.5454,N,12241.0063,W,1,07,1.4,64.7,M,-24.5,M,,0000*5F

@,!,50,&,100000

$GPGGA,175722.000,3827.5453,N,12241.0064,W,1,07,1.4,64.6,M,-24.5,M,,0000*5D

@,!,50,&,100000

$GPGGA,175723.000,3827.5449,N,12241.0066,W,1,07,1.4,63.9,M,-24.5,M,,0000*5D

@,!,50,&,100000

$GPGGA,175724.000,3827.5446,N,12241.0067,W,1,07,1.4,63.5,M,-24.5,M,,0000*58

@,!,50,&,100000

$GPGGA,175725.000,3827.5446,N,12241.0066,W,1,07,1.4,63.2,M,-24.5,M,,0000*5F

@,!,50,&,100000

$GPGGA,175726.000,3827.5445,N,12241.0067,W,1,07,1.4,62.7,M,-24.5,M,,0000*5A

@,!,50,&,100000

$GPGGA,175727.000,3827.5444,N,12241.0067,W,1,07,1.4,62.4,M,-24.5,M,,0000*59

@,!,50,&,100000

$GPGGA,175728.000,3827.5444,N,12241.0065,W,1,07,1.4,62.5,M,-24.5,M,,0000*55

@,!,50,&,100000

$GPGGA,175729.000,3827.5442,N,12241.0065,W,1,07,1.4,61.8,M,-24.5,M,,0000*5C

@,!,50,&,100000

$GPGGA,175730.000,3827.5440,N,12241.0065,W,1,06,1.7,61.5,M,-24.5,M,,0000*59

@,!,50,&,100000

$GPGGA,175731.000,3827.5438,N,12241.0065,W,1,06,1.7,61.4,M,-24.5,M,,0000*56

@,!,50,&,100000

$GPGGA,175732.000,3827.5438,N,12241.0066,W,1,07,1.4,61.5,M,-24.5,M,,0000*55

@,!,50,&,100000

$GPGGA,175733.000,3827.5439,N,12241.0066,W,1,07,1.4,62.0,M,-24.5,M,,0000*53

@,!,50,&,100000

$GPGGA,175734.000,3827.5440,N,12241.0067,W,1,07,1.4,62.5,M,-24.5,M,,0000*5E

@,!,50,&,100000

$GPGGA,175735.000,3827.5438,N,12241.0067,W,1,07,1.4,62.0,M,-24.5,M,,0000*55

@,!,50,&,100000

$GPGGA,175736.000,3827.5438,N,12241.0066,W,1,07,1.4,62.1,M,-24.5,M,,0000*56

@,!,50,&,100000

$GPGGA,175737.000,3827.5438,N,12241.0065,W,1,07,1.4,62.1,M,-24.5,M,,0000*54

@,!,50,&,100000

$GPGGA,175738.000,3827.5436,N,12241.0065,W,1,07,1.4,61.6,M,-24.5,M,,0000*51

@,!,50,&,100000

$GPGGA,175739.000,3827.5436,N,12241.0064,W,1,06,1.5,61.6,M,-24.5,M,,0000*51

@,!,50,&,100000

$GPGGA,175740.000,3827.5436,N,12241.0064,W,1,06,1.5,61.7,M,-24.5,M,,0000*5E

@,!,50,&,100000

$GPGGA,175741.000,3827.5438,N,12241.0061,W,1,06,1.5,62.0,M,-24.5,M,,0000*50

@,!,50,&,100000

$GPGGA,175742.000,3827.5440,N,12241.0061,W,1,06,1.5,62.3,M,-24.5,M,,0000*5F

@,!,50,&,100000

$GPGGA,175743.000,3827.5441,N,12241.0060,W,1,06,1.5,62.1,M,-24.5,M,,0000*5C

@,!,50,&,100000

$GPGGA,175744.000,3827.5441,N,12241.0060,W,1,06,1.5,62.2,M,-24.5,M,,0000*58

@,!,50,&,100000

$GPGGA,175745.000,3827.5440,N,12241.0060,W,1,06,1.5,62.0,M,-24.5,M,,0000*5A

@,!,50,&,100000

$GPGGA,175746.000,3827.5438,N,12241.0059,W,1,06,1.5,61.9,M,-24.5,M,,0000*56

@,!,50,&,100000

$GPGGA,175747.000,3827.5438,N,12241.0058,W,1,06,1.5,61.8,M,-24.5,M,,0000*57

@,!,50,&,100000

$GPGGA,175748.000,3827.5439,N,12241.0058,W,1,05,1.8,62.1,M,-24.5,M,,0000*5D

@,!,50,&,100000

$GPGGA,175749.000,3827.5443,N,12241.0055,W,1,05,1.8,63.0,M,-24.5,M,,0000*5C

@,!,50,&,100000

$GPGGA,175750.000,3827.5445,N,12241.0055,W,1,05,1.8,63.3,M,-24.5,M,,0000*51

@,!,50,&,100000

$GPGGA,175751.000,3827.5442,N,12241.0055,W,1,06,1.7,62.8,M,-24.5,M,,0000*51

@,!,50,&,100000

$GPGGA,175752.000,3827.5443,N,12241.0056,W,1,06,1.7,62.9,M,-24.5,M,,0000*51

@,!,50,&,100000

$GPGGA,175753.000,3827.5446,N,12241.0055,W,1,06,1.7,63.5,M,-24.5,M,,0000*5B

@,!,50,&,100000

$GPGGA,175754.000,3827.5447,N,12241.0054,W,1,06,1.7,64.2,M,-24.5,M,,0000*5C

@,!,50,&,100000

$GPGGA,175755.000,3827.5449,N,12241.0053,W,1,06,1.7,64.6,M,-24.5,M,,0000*50

@,!,50,&,100000

$GPGGA,175756.000,3827.5446,N,12241.0052,W,1,06,1.7,64.1,M,-24.5,M,,0000*5A

@,!,50,&,100000

$GPGGA,175757.000,3827.5442,N,12241.0052,W,1,06,1.7,63.4,M,-24.5,M,,0000*5D

@,!,50,&,100000

$GPGGA,175758.000,3827.5443,N,12241.0050,W,1,06,1.7,63.5,M,-24.5,M,,0000*50

@,!,50,&,100000

$GPGGA,175759.000,3827.5444,N,12241.0049,W,1,06,1.7,63.4,M,-24.5,M,,0000*5F

@,!,50,&,100000

$GPGGA,175800.000,3827.5441,N,12241.0050,W,1,06,1.7,62.7,M,-24.5,M,,0000*53

@,!,50,&,100000

$GPGGA,175801.000,3827.5439,N,12241.0051,W,1,06,1.7,61.7,M,-24.5,M,,0000*5F

@,!,50,&,100000

$GPGGA,175802.000,3827.5433,N,12241.0052,W,1,06,1.7,60.3,M,-24.5,M,,0000*50

@,!,50,&,100000

$GPGGA,175803.000,3827.5430,N,12241.0053,W,1,06,1.7,59.5,M,-24.5,M,,0000*5F

@,!,50,&,100000

$GPGGA,175804.000,3827.5427,N,12241.0053,W,1,06,1.7,58.8,M,-24.5,M,,0000*52

@,!,50,&,100000

$GPGGA,175805.000,3827.5423,N,12241.0052,W,1,06,1.7,58.0,M,-24.5,M,,0000*5E

@,!,50,&,100000

$GPGGA,175806.000,3827.5420,N,12241.0051,W,1,06,1.7,57.7,M,-24.5,M,,0000*55

@,!,50,&,100000

$GPGGA,175807.000,3827.5417,N,12241.0050,W,1,06,1.7,57.5,M,-24.5,M,,0000*53

@,!,50,&,100000

$GPGGA,175808.000,3827.5417,N,12241.0050,W,1,06,1.7,57.6,M,-24.5,M,,0000*5F

@,!,50,&,100000

$GPGGA,175809.000,3827.5413,N,12241.0050,W,1,06,1.7,57.2,M,-24.5,M,,0000*5E

@,!,50,&,100000

$GPGGA,175810.000,3827.5411,N,12241.0049,W,1,06,1.7,56.9,M,-24.5,M,,0000*56

@,!,50,&,100000

$GPGGA,175811.000,3827.5405,N,12241.0050,W,1,06,1.7,55.9,M,-24.5,M,,0000*59

@,!,50,&,100000

$GPGGA,175812.000,3827.5404,N,12241.0050,W,1,06,1.7,56.1,M,-24.5,M,,0000*50

@,!,50,&,100000

$GPGGA,175813.000,3827.5404,N,12241.0049,W,1,07,1.4,56.2,M,-24.5,M,,0000*58

@,!,50,&,100000

$GPGGA,175814.000,3827.5399,N,12241.0050,W,1,07,1.4,55.0,M,-24.5,M,,0000*55

@,!,50,&,100000

$GPGGA,175815.000,3827.5400,N,12241.0048,W,1,07,1.4,55.1,M,-24.5,M,,0000*5B

@,!,50,&,100000

$GPGGA,175816.000,3827.5401,N,12241.0049,W,1,07,1.4,55.0,M,-24.5,M,,0000*59

@,!,50,&,100000

$GPGGA,175817.000,3827.5408,N,12241.0053,W,1,07,1.4,56.1,M,-24.5,M,,0000*58

@,!,50,&,100000

$GPGGA,175818.000,3827.5416,N,12241.0055,W,1,07,1.4,57.4,M,-24.5,M,,0000*5A

@,!,50,&,100000

$GPGGA,175819.000,3827.5418,N,12241.0056,W,1,07,1.4,57.6,M,-24.5,M,,0000*54

@,!,50,&,100000

$GPGGA,175820.000,3827.5420,N,12241.0057,W,1,07,1.4,58.2,M,-24.5,M,,0000*5F

@,!,50,&,100000

$GPGGA,175821.000,3827.5422,N,12241.0058,W,1,07,1.4,58.5,M,-24.5,M,,0000*54

@,!,50,&,100000

$GPGGA,175822.000,3827.5422,N,12241.0058,W,1,06,1.7,58.8,M,-24.5,M,,0000*58

@,!,50,&,100000

$GPGGA,175823.000,3827.5421,N,12241.0059,W,1,06,1.7,58.5,M,-24.5,M,,0000*56

@,!,50,&,100000

$GPGGA,175824.000,3827.5419,N,12241.0060,W,1,07,1.4,58.3,M,-24.5,M,,0000*54

@,!,50,&,100000

$GPGGA,175825.000,3827.5417,N,12241.0060,W,1,07,1.4,58.1,M,-24.5,M,,0000*59

@,!,50,&,100000

$GPGGA,175826.000,3827.5420,N,12241.0062,W,1,07,1.4,58.6,M,-24.5,M,,0000*5B

@,!,50,&,100000

$GPGGA,175827.000,3827.5422,N,12241.0064,W,1,07,1.4,59.1,M,-24.5,M,,0000*58

@,!,50,&,100000

$GPGGA,175828.000,3827.5421,N,12241.0065,W,1,07,1.4,59.0,M,-24.5,M,,0000*54

@,!,50,&,100000

$GPGGA,175829.000,3827.5419,N,12241.0065,W,1,07,1.4,59.1,M,-24.5,M,,0000*5F

@,!,50,&,100000

$GPGGA,175830.000,3827.5420,N,12241.0063,W,1,07,1.4,59.6,M,-24.5,M,,0000*5C

@,!,50,&,100000

$GPGGA,175831.000,3827.5415,N,12241.0063,W,1,07,1.4,58.5,M,-24.5,M,,0000*59

@,!,50,&,100000

$GPGGA,175832.000,3827.5413,N,12241.0061,W,1,07,1.4,58.5,M,-24.5,M,,0000*5E

@,!,50,&,100000

$GPGGA,175833.000,3827.5417,N,12241.0057,W,1,07,1.4,59.7,M,-24.5,M,,0000*5D

@,!,50,&,100000

$GPGGA,175834.000,3827.5420,N,12241.0054,W,1,06,1.4,60.4,M,-24.5,M,,0000*55

@,!,50,&,100000

$GPGGA,175835.000,3827.5421,N,12241.0054,W,1,06,1.4,60.5,M,-24.5,M,,0000*54

@,!,50,&,100000

$GPGGA,175836.000,3827.5421,N,12241.0055,W,1,06,1.4,60.7,M,-24.5,M,,0000*54

@,!,50,&,100000

$GPGGA,175837.000,3827.5422,N,12241.0056,W,1,06,1.4,61.1,M,-24.5,M,,0000*52

@,!,50,&,100000

$GPGGA,175838.000,3827.5424,N,12241.0054,W,1,05,1.7,61.6,M,-24.5,M,,0000*5E

@,!,50,&,100000

$GPGGA,175839.000,3827.5427,N,12241.0052,W,1,05,1.7,62.2,M,-24.5,M,,0000*5D

@,!,50,&,100000

$GPGGA,175840.000,3827.5429,N,12241.0050,W,1,05,1.7,62.7,M,-24.5,M,,0000*5A

@,!,50,&,100000

$GPGGA,175841.000,3827.5430,N,12241.0049,W,1,05,1.7,63.0,M,-24.5,M,,0000*5D

@,!,50,&,100000

$GPGGA,175842.000,3827.5434,N,12241.0047,W,1,04,1.8,63.6,M,-24.5,M,,0000*5C

@,!,50,&,100000

$GPGGA,175843.000,3827.5438,N,12241.0046,W,1,04,1.8,64.4,M,-24.5,M,,0000*55

@,!,50,&,100000

$GPGGA,175844.000,3827.5439,N,12241.0046,W,1,05,1.5,64.5,M,-24.5,M,,0000*5E

@,!,50,&,100000

$GPGGA,175845.000,3827.5442,N,12241.0044,W,1,05,1.5,64.9,M,-24.5,M,,0000*5D

@,!,50,&,100000

$GPGGA,175846.000,3827.5445,N,12241.0044,W,1,05,1.5,65.5,M,-24.5,M,,0000*54

@,!,50,&,100000

$GPGGA,175847.000,3827.5444,N,12241.0045,W,1,05,1.5,65.3,M,-24.5,M,,0000*53

@,!,50,&,100000

$GPGGA,175848.000,3827.5446,N,12241.0043,W,1,05,1.5,65.7,M,-24.5,M,,0000*5C

@,!,50,&,100000

$GPGGA,175849.000,3827.5451,N,12241.0042,W,1,05,1.5,66.7,M,-24.5,M,,0000*59

@,!,50,&,100000

$GPGGA,175850.000,3827.5456,N,12241.0042,W,1,05,1.5,67.6,M,-24.5,M,,0000*56

@,!,50,&,100000

$GPGGA,175851.000,3827.5456,N,12241.0043,W,1,05,1.5,67.7,M,-24.5,M,,0000*57

@,!,50,&,100000

$GPGGA,175852.000,3827.5457,N,12241.0044,W,1,05,1.5,67.9,M,-24.5,M,,0000*5C

@,!,50,&,100000

$GPGGA,175853.000,3827.5456,N,12241.0043,W,1,05,1.5,67.5,M,-24.5,M,,0000*57

@,!,50,&,100000

$GPGGA,175854.000,3827.5455,N,12241.0041,W,1,05,1.5,67.2,M,-24.5,M,,0000*56

@,!,50,&,100000

$GPGGA,175855.000,3827.5453,N,12241.0040,W,1,05,1.5,66.7,M,-24.5,M,,0000*54

@,!,50,&,100000

$GPGGA,175856.000,3827.5454,N,12241.0041,W,1,05,1.5,66.9,M,-24.5,M,,0000*5F

@,!,50,&,100000

$GPGGA,175857.000,3827.5455,N,12241.0041,W,1,05,1.5,67.0,M,-24.5,M,,0000*57

@,!,50,&,100000

$GPGGA,175858.000,3827.5453,N,12241.0040,W,1,06,1.4,66.1,M,-24.5,M,,0000*5D

@,!,50,&,100000

$GPGGA,175859.000,3827.5453,N,12241.0041,W,1,06,1.4,65.9,M,-24.5,M,,0000*56

@,!,50,&,100000

$GPGGA,175900.000,3827.5450,N,12241.0039,W,1,06,1.4,65.3,M,-24.5,M,,0000*5D

@,!,50,&,100000

$GPGGA,175901.000,3827.5446,N,12241.0036,W,1,06,1.4,64.5,M,-24.5,M,,0000*53

@,!,50,&,100000

$GPGGA,175902.000,3827.5445,N,12241.0037,W,1,05,1.7,64.2,M,-24.5,M,,0000*55

@,!,50,&,100000

$GPGGA,175903.000,3827.5444,N,12241.0038,W,1,05,1.7,63.8,M,-24.5,M,,0000*57

@,!,50,&,100000

$GPGGA,175904.000,3827.5444,N,12241.0039,W,1,05,1.7,63.6,M,-24.5,M,,0000*5F

@,!,50,&,100000

$GPGGA,175905.000,3827.5442,N,12241.0039,W,1,05,1.7,63.4,M,-24.5,M,,0000*5A

@,!,50,&,100000

$GPGGA,175906.000,3827.5439,N,12241.0042,W,1,06,1.4,62.7,M,-24.5,M,,0000*5B

@,!,50,&,100000

$GPGGA,175907.000,3827.5438,N,12241.0045,W,1,06,1.4,62.6,M,-24.5,M,,0000*5D

@,!,50,&,100000

$GPGGA,175908.000,3827.5439,N,12241.0048,W,1,06,1.4,62.8,M,-24.5,M,,0000*50

@,!,50,&,100000

$GPGGA,175909.000,3827.5441,N,12241.0049,W,1,06,1.4,63.5,M,-24.5,M,,0000*53

@,!,50,&,100000

$GPGGA,175910.000,3827.5442,N,12241.0051,W,1,06,1.4,63.8,M,-24.5,M,,0000*5C

@,!,50,&,100000

$GPGGA,175911.000,3827.5440,N,12241.0052,W,1,06,1.4,63.4,M,-24.5,M,,0000*50

@,!,50,&,100000

$GPGGA,175912.000,3827.5437,N,12241.0054,W,1,06,1.4,62.9,M,-24.5,M,,0000*59

@,!,50,&,100000

$GPGGA,175913.000,3827.5436,N,12241.0053,W,1,06,1.4,63.0,M,-24.5,M,,0000*56

@,!,50,&,100000

$GPGGA,175914.000,3827.5438,N,12241.0051,W,1,06,1.4,63.8,M,-24.5,M,,0000*55

@,!,50,&,100000

$GPGGA,175915.000,3827.5438,N,12241.0049,W,1,06,1.4,63.7,M,-24.5,M,,0000*52

@,!,50,&,100000

$GPGGA,175916.000,3827.5438,N,12241.0049,W,1,06,1.4,63.5,M,-24.5,M,,0000*53

@,!,50,&,100000

$GPGGA,175917.000,3827.5437,N,12241.0049,W,1,06,1.4,63.1,M,-24.5,M,,0000*59

@,!,50,&,100000

$GPGGA,175918.000,3827.5440,N,12241.0047,W,1,06,1.4,63.7,M,-24.5,M,,0000*5E

@,!,50,&,100000

$GPGGA,175919.000,3827.5443,N,12241.0046,W,1,06,1.4,64.3,M,-24.5,M,,0000*5E

@,!,50,&,100000

$GPGGA,175920.000,3827.5444,N,12241.0046,W,1,06,1.4,64.4,M,-24.5,M,,0000*54

@,!,50,&,100000

$GPGGA,175921.000,3827.5442,N,12241.0048,W,1,06,1.4,63.8,M,-24.5,M,,0000*56

@,!,50,&,100000

$GPGGA,175922.000,3827.5444,N,12241.0049,W,1,06,1.4,64.0,M,-24.5,M,,0000*5D

@,!,50,&,100000

$GPGGA,175923.000,3827.5443,N,12241.0052,W,1,06,1.4,63.4,M,-24.5,M,,0000*52

@,!,50,&,100000

$GPGGA,175924.000,3827.5442,N,12241.0054,W,1,06,1.4,62.8,M,-24.5,M,,0000*5F

@,!,50,&,100000

$GPGGA,175925.000,3827.5442,N,12241.0054,W,1,06,1.4,62.5,M,-24.5,M,,0000*53

@,!,50,&,100000

$GPGGA,175926.000,3827.5438,N,12241.0055,W,1,06,1.4,61.6,M,-24.5,M,,0000*5C

@,!,50,&,100000

$GPGGA,175927.000,3827.5437,N,12241.0058,W,1,06,1.4,61.0,M,-24.5,M,,0000*59

@,!,50,&,100000

$GPGGA,175928.000,3827.5436,N,12241.0059,W,1,06,1.4,60.4,M,-24.5,M,,0000*53

@,!,50,&,100000

$GPGGA,175929.000,3827.5437,N,12241.0061,W,1,06,1.4,60.5,M,-24.5,M,,0000*59

@,!,50,&,100000

$GPGGA,175930.000,3827.5438,N,12241.0062,W,1,06,1.4,60.6,M,-24.5,M,,0000*5E

@,!,50,&,100000

$GPGGA,175931.000,3827.5440,N,12241.0063,W,1,06,1.4,61.0,M,-24.5,M,,0000*56

@,!,50,&,100000

$GPGGA,175932.000,3827.5442,N,12241.0061,W,1,06,1.4,61.4,M,-24.5,M,,0000*51

@,!,50,&,100000

$GPGGA,175933.000,3827.5439,N,12241.0060,W,1,06,1.4,60.6,M,-24.5,M,,0000*5E

@,!,50,&,100000

$GPGGA,175934.000,3827.5441,N,12241.0059,W,1,06,1.4,61.0,M,-24.5,M,,0000*5B

@,!,50,&,100000

$GPGGA,175935.000,3827.5444,N,12241.0058,W,1,06,1.4,61.8,M,-24.5,M,,0000*56

@,!,50,&,100000

$GPGGA,175936.000,3827.5451,N,12241.0057,W,1,06,1.4,63.1,M,-24.5,M,,0000*55

@,!,50,&,100000

$GPGGA,175937.000,3827.5455,N,12241.0055,W,1,06,1.4,64.2,M,-24.5,M,,0000*56

@,!,50,&,100000

$GPGGA,175938.000,3827.5459,N,12241.0053,W,1,06,1.4,65.2,M,-24.5,M,,0000*52

@,!,50,&,100000

$GPGGA,175939.000,3827.5460,N,12241.0053,W,1,06,1.4,65.6,M,-24.5,M,,0000*5D

@,!,50,&,100000

$GPGGA,175940.000,3827.5457,N,12241.0053,W,1,06,1.4,65.1,M,-24.5,M,,0000*50

@,!,50,&,100000

$GPGGA,175941.000,3827.5452,N,12241.0054,W,1,06,1.4,64.3,M,-24.5,M,,0000*50

@,!,50,&,100000

$GPGGA,175942.000,3827.5452,N,12241.0053,W,1,06,1.4,64.5,M,-24.5,M,,0000*52

@,!,50,&,100000

$GPGGA,175943.000,3827.5457,N,12241.0050,W,1,06,1.4,65.4,M,-24.5,M,,0000*55

@,!,50,&,100000

$GPGGA,175944.000,3827.5460,N,12241.0049,W,1,06,1.4,66.1,M,-24.5,M,,0000*58

@,!,50,&,100000

$GPGGA,175945.000,3827.5463,N,12241.0048,W,1,06,1.4,66.8,M,-24.5,M,,0000*52

@,!,50,&,100000

$GPGGA,175946.000,3827.5464,N,12241.0048,W,1,06,1.4,67.2,M,-24.5,M,,0000*5D

@,!,50,&,100000

$GPGGA,175947.000,3827.5466,N,12241.0049,W,1,06,1.4,67.7,M,-24.5,M,,0000*5A

@,!,50,&,100000

$GPGGA,175948.000,3827.5468,N,12241.0048,W,1,06,1.4,68.3,M,-24.5,M,,0000*51

@,!,50,&,100000

$GPGGA,175949.000,3827.5469,N,12241.0047,W,1,06,1.4,68.6,M,-24.5,M,,0000*5B

@,!,50,&,100000

$GPGGA,175950.000,3827.5470,N,12241.0046,W,1,06,1.4,68.8,M,-24.5,M,,0000*54

@,!,50,&,100000

$GPGGA,175951.000,3827.5471,N,12241.0048,W,1,06,1.4,69.1,M,-24.5,M,,0000*52

@,!,50,&,100000

$GPGGA,175952.000,3827.5471,N,12241.0049,W,1,05,1.4,69.2,M,-24.5,M,,0000*50

@,!,50,&,100000

$GPGGA,175953.000,3827.5471,N,12241.0050,W,1,05,1.4,69.1,M,-24.5,M,,0000*5A

@,!,50,&,100000

$GPGGA,175954.000,3827.5471,N,12241.0052,W,1,05,1.4,69.2,M,-24.5,M,,0000*5C

@,!,50,&,100000

$GPGGA,175955.000,3827.5471,N,12241.0053,W,1,05,1.4,69.1,M,-24.5,M,,0000*5F

@,!,50,&,100000

$GPGGA,175956.000,3827.5470,N,12241.0054,W,1,05,1.4,69.0,M,-24.5,M,,0000*5B

@,!,50,&,100000

$GPGGA,175957.000,3827.5469,N,12241.0054,W,1,05,1.4,68.7,M,-24.5,M,,0000*54

@,!,50,&,100000

$GPGGA,175958.000,3827.5467,N,12241.0053,W,1,06,1.4,68.1,M,-24.5,M,,0000*57

@,!,50,&,100000

$GPGGA,175959.000,3827.5466,N,12241.0053,W,1,06,1.4,68.1,M,-24.5,M,,0000*57

@,!,50,&,100000

$GPGGA,180000.000,3827.5467,N,12241.0055,W,1,06,1.4,68.4,M,-24.5,M,,0000*5A

@,!,50,&,100000

$GPGGA,180001.000,3827.5467,N,12241.0056,W,1,06,1.4,68.4,M,-24.5,M,,0000*58

@,!,50,&,100000

$GPGGA,180002.000,3827.5465,N,12241.0055,W,1,06,1.4,68.0,M,-24.5,M,,0000*5E

@,!,50,&,100000

$GPGGA,180003.000,3827.5461,N,12241.0050,W,1,06,1.4,67.3,M,-24.5,M,,0000*52

@,!,50,&,100000

$GPGGA,180004.000,3827.5460,N,12241.0049,W,1,06,1.4,67.1,M,-24.5,M,,0000*5E

@,!,50,&,100000

$GPGGA,180005.000,3827.5460,N,12241.0048,W,1,06,1.4,67.1,M,-24.5,M,,0000*5E

@,!,50,&,100000

$GPGGA,180006.000,3827.5459,N,12241.0048,W,1,06,1.4,66.7,M,-24.5,M,,0000*50

@,!,50,&,100000

$GPGGA,180007.000,3827.5462,N,12241.0048,W,1,06,1.4,67.1,M,-24.5,M,,0000*5E

@,!,50,&,100000

$GPGGA,180008.000,3827.5463,N,12241.0050,W,1,06,1.4,66.9,M,-24.5,M,,0000*50

@,!,50,&,100000

$GPGGA,180009.000,3827.5462,N,12241.0051,W,1,06,1.4,66.3,M,-24.5,M,,0000*5B

@,!,50,&,100000

$GPGGA,180010.000,3827.5457,N,12241.0054,W,1,06,1.4,65.4,M,-24.5,M,,0000*54

@,!,50,&,100000

$GPGGA,180011.000,3827.5454,N,12241.0057,W,1,06,1.4,64.5,M,-24.5,M,,0000*55

@,!,50,&,100000

$GPGGA,180012.000,3827.5453,N,12241.0059,W,1,06,1.4,64.3,M,-24.5,M,,0000*59

@,!,50,&,100000

$GPGGA,180013.000,3827.5449,N,12241.0061,W,1,06,1.4,63.6,M,-24.5,M,,0000*5A

@,!,50,&,100000

$GPGGA,180014.000,3827.5451,N,12241.0061,W,1,06,1.4,64.1,M,-24.5,M,,0000*54

@,!,50,&,100000

$GPGGA,180015.000,3827.5450,N,12241.0062,W,1,06,1.4,63.6,M,-24.5,M,,0000*57

@,!,50,&,100000

$GPGGA,180016.000,3827.5449,N,12241.0062,W,1,06,1.4,63.4,M,-24.5,M,,0000*5E

@,!,50,&,100000

$GPGGA,180017.000,3827.5446,N,12241.0063,W,1,06,1.4,62.7,M,-24.5,M,,0000*53

@,!,50,&,100000

$GPGGA,180018.000,3827.5441,N,12241.0062,W,1,06,1.4,61.7,M,-24.5,M,,0000*59

@,!,50,&,100000

$GPGGA,180019.000,3827.5439,N,12241.0063,W,1,06,1.4,61.4,M,-24.5,M,,0000*55

@,!,50,&,100000

$GPGGA,180020.000,3827.5438,N,12241.0065,W,1,06,1.4,61.2,M,-24.5,M,,0000*5E

@,!,50,&,100000

$GPGGA,180021.000,3827.5439,N,12241.0065,W,1,06,1.4,61.4,M,-24.5,M,,0000*58

@,!,50,&,100000

$GPGGA,180022.000,3827.5441,N,12241.0066,W,1,06,1.4,61.6,M,-24.5,M,,0000*55

@,!,50,&,100000

$GPGGA,180023.000,3827.5443,N,12241.0067,W,1,06,1.4,61.7,M,-24.5,M,,0000*56

@,!,50,&,100000

$GPGGA,180024.000,3827.5444,N,12241.0068,W,1,06,1.4,61.6,M,-24.5,M,,0000*58

@,!,50,&,100000

$GPGGA,180025.000,3827.5443,N,12241.0067,W,1,06,1.4,61.1,M,-24.5,M,,0000*56

@,!,50,&,100000

$GPGGA,180026.000,3827.5443,N,12241.0066,W,1,06,1.4,60.9,M,-24.5,M,,0000*5D

@,!,50,&,100000

$GPGGA,180027.000,3827.5442,N,12241.0065,W,1,06,1.4,60.5,M,-24.5,M,,0000*52

@,!,50,&,100000

$GPGGA,180028.000,3827.5446,N,12241.0063,W,1,06,1.4,61.1,M,-24.5,M,,0000*5A

@,!,50,&,100000

$GPGGA,180029.000,3827.5444,N,12241.0064,W,1,06,1.4,60.5,M,-24.5,M,,0000*5B

@,!,50,&,100000

$GPGGA,180030.000,3827.5442,N,12241.0062,W,1,06,1.4,59.9,M,-24.5,M,,0000*55

@,!,50,&,100000

$GPGGA,180031.000,3827.5442,N,12241.0060,W,1,06,1.4,59.8,M,-24.5,M,,0000*57

@,!,50,&,100000

$GPGGA,180032.000,3827.5443,N,12241.0060,W,1,06,1.4,59.7,M,-24.5,M,,0000*5A

@,!,50,&,100000

$GPGGA,180033.000,3827.5442,N,12241.0062,W,1,06,1.4,59.5,M,-24.5,M,,0000*5A

@,!,50,&,100000

$GPGGA,180034.000,3827.5444,N,12241.0064,W,1,06,1.4,60.0,M,-24.5,M,,0000*52

@,!,50,&,100000

$GPGGA,180035.000,3827.5444,N,12241.0065,W,1,06,1.4,59.7,M,-24.5,M,,0000*5F

@,!,50,&,100000

$GPGGA,180036.000,3827.5446,N,12241.0066,W,1,06,1.4,60.3,M,-24.5,M,,0000*53

@,!,50,&,100000

$GPGGA,180037.000,3827.5449,N,12241.0067,W,1,06,1.4,60.7,M,-24.5,M,,0000*58

@,!,50,&,100000

$GPGGA,180038.000,3827.5451,N,12241.0068,W,1,06,1.4,61.0,M,-24.5,M,,0000*57

@,!,50,&,100000

$GPGGA,180039.000,3827.5451,N,12241.0070,W,1,06,1.4,60.7,M,-24.5,M,,0000*59

@,!,50,&,100000

$GPGGA,180040.000,3827.5452,N,12241.0070,W,1,06,1.4,61.0,M,-24.5,M,,0000*52

@,!,50,&,100000

$GPGGA,180041.000,3827.5453,N,12241.0069,W,1,06,1.4,61.5,M,-24.5,M,,0000*5F

@,!,50,&,100000

$GPGGA,180042.000,3827.5453,N,12241.0071,W,1,06,1.4,61.7,M,-24.5,M,,0000*57

@,!,50,&,100000

$GPGGA,180043.000,3827.5452,N,12241.0073,W,1,06,1.4,61.5,M,-24.5,M,,0000*57

@,!,50,&,100000

$GPGGA,180044.000,3827.5451,N,12241.0074,W,1,06,1.4,61.3,M,-24.5,M,,0000*52

@,!,50,&,100000

$GPGGA,180045.000,3827.5451,N,12241.0076,W,1,06,1.4,61.2,M,-24.5,M,,0000*50

@,!,50,&,100000

$GPGGA,180046.000,3827.5450,N,12241.0077,W,1,06,1.4,61.0,M,-24.5,M,,0000*51

@,!,50,&,100000

$GPGGA,180047.000,3827.5450,N,12241.0080,W,1,06,1.4,61.4,M,-24.5,M,,0000*5C

@,!,50,&,100000

$GPGGA,180048.000,3827.5450,N,12241.0082,W,1,06,1.4,61.5,M,-24.5,M,,0000*50

@,!,50,&,100000

$GPGGA,180049.000,3827.5451,N,12241.0083,W,1,06,1.4,61.6,M,-24.5,M,,0000*52

@,!,50,&,100000

$GPGGA,180050.000,3827.5452,N,12241.0084,W,1,06,1.4,61.5,M,-24.5,M,,0000*5D

@,!,50,&,100000

$GPGGA,180051.000,3827.5450,N,12241.0083,W,1,06,1.4,61.1,M,-24.5,M,,0000*5D

@,!,50,&,100000

$GPGGA,180052.000,3827.5448,N,12241.0082,W,1,06,1.4,60.9,M,-24.5,M,,0000*5F

@,!,50,&,100000

$GPGGA,180053.000,3827.5448,N,12241.0082,W,1,06,1.4,60.9,M,-24.5,M,,0000*5E

@,!,50,&,100000

$GPGGA,180054.000,3827.5447,N,12241.0082,W,1,06,1.4,61.1,M,-24.5,M,,0000*5F

@,!,50,&,100000

$GPGGA,180055.000,3827.5448,N,12241.0082,W,1,06,1.4,61.2,M,-24.5,M,,0000*52

@,!,50,&,100000

$GPGGA,180056.000,3827.5448,N,12241.0082,W,1,06,1.4,61.5,M,-24.5,M,,0000*56

@,!,50,&,100000

$GPGGA,180057.000,3827.5446,N,12241.0081,W,1,06,1.4,61.2,M,-24.5,M,,0000*5D

@,!,50,&,100000

$GPGGA,180058.000,3827.5444,N,12241.0078,W,1,06,1.4,60.9,M,-24.5,M,,0000*5C

@,!,50,&,100000

$GPGGA,180059.000,3827.5441,N,12241.0075,W,1,06,1.4,60.5,M,-24.5,M,,0000*59

@,!,50,&,100000

$GPGGA,180100.000,3827.5440,N,12241.0073,W,1,06,1.4,60.3,M,-24.5,M,,0000*55

@,!,50,&,100000

$GPGGA,180101.000,3827.5440,N,12241.0072,W,1,06,1.4,60.4,M,-24.5,M,,0000*52

@,!,50,&,100000

$GPGGA,180102.000,3827.5441,N,12241.0071,W,1,06,1.4,60.4,M,-24.5,M,,0000*53

@,!,50,&,100000

$GPGGA,180103.000,3827.5442,N,12241.0071,W,1,06,1.4,60.3,M,-24.5,M,,0000*56

@,!,50,&,100000

$GPGGA,180104.000,3827.5444,N,12241.0071,W,1,06,1.4,60.6,M,-24.5,M,,0000*52

@,!,50,&,100000

